[{"name":"Wetpaint","category_code":"web","description":"","address1":"710 - 2nd Avenue","address2":"Suite 1100","zip_code":"98104","city":"Seattle","state_code":"WA","country_code":"USA","latitude":47.603122,"longitude":-122.333253},{"name":"Wetpaint","category_code":"web","description":"","address1":"270 Lafayette Street","address2":"Suite 505","zip_code":"10012","city":"New York","state_code":"NY","country_code":"USA","latitude":40.7237306,"longitude":-73.9964312},{"name":"Joost","category_code":"games_video","description":"","address1":"100 5th Ave Fl 6","address2":"","zip_code":"10011-6903","city":"New York","state_code":"NY","country_code":"USA","latitude":40.7464969,"longitude":-74.0094471},{"name":"TheFind","category_code":"ecommerce","description":"","address1":"310 Villa Street","address2":"","zip_code":"94041","city":"Mountain View","state_code":"CA","country_code":"USA","latitude":37.391502,"longitude":-122.073463},{"name":"Kaboodle","category_code":"ecommerce","description":"","address1":"640 W. California Ave.","address2":"Suite 220","zip_code":"94041","city":"Sunnyvale","state_code":"CA","country_code":"USA","latitude":37.382162,"longitude":-122.036301},{"name":"TechnologyGuide","category_code":"web","description":null,"address1":"7420 Jager Ct","address2":"","zip_code":"45230","city":"Cincinnati","state_code":"OH","country_code":"USA","latitude":39.06685,"longitude":-84.351532},{"name":"Techmeme","category_code":"web","description":"","address1":"","address2":"","zip_code":"94107","city":"San Francisco","state_code":"CA","country_code":"USA","latitude":37.7618242,"longitude":-122.3985871},{"name":"Jaxtr","category_code":"mobile","description":null,"address1":"855 Oak Grove Ave.","address2":"Suite 100","zip_code":"94025","city":"Menlo Park","state_code":"CA","country_code":"USA","latitude":37.451026,"longitude":-122.18676},{"name":"WallStrip","category_code":"games_video","description":null,"address1":null,"address2":null,"zip_code":null,"city":null,"state_code":null,"country_code":"USA","latitude":37.09024,"longitude":-95.712891},{"name":"The Walt Disney Company","category_code":"games_video","description":null,"address1":"500 S. Buena Vista St.","address2":"","zip_code":"91521","city":"Burbank","state_code":"CA","country_code":"USA","latitude":34.156802,"longitude":-118.324987},{"name":"Revver","category_code":"games_video","description":null,"address1":"","address2":"","zip_code":"","city":"Los Angeles","state_code":"CA","country_code":"USA","latitude":34.052187,"longitude":-118.243425},{"name":"Splashup","category_code":"web","description":null,"address1":"","address2":"","zip_code":"","city":"","state_code":null,"country_code":"USA","latitude":37.09024,"longitude":-95.712891},{"name":"Goowy","category_code":"web","description":null,"address1":"121 Broadway","address2":"Suite 233","zip_code":"92101","city":"San Diego","state_code":"CA","country_code":"USA","latitude":32.71537,"longitude":-117.163353},{"name":"Mevio","category_code":"games_video","description":"","address1":"577 2nd St Suite 203","address2":"","zip_code":"94107","city":"San Francisco","state_code":"CA","country_code":"USA","latitude":37.782263,"longitude":-122.392142},{"name":"Lastminute","category_code":"web","description":"Corporate Headquarters","address1":"39 Victoria St","address2":"","zip_code":"SW1H 0EA","city":"London","state_code":null,"country_code":"GBR","latitude":37.09024,"longitude":-95.712891},{"name":"MocoSpace","category_code":"games_video","description":"","address1":"","address2":"","zip_code":"02111","city":"Boston","state_code":"MA","country_code":"USA","latitude":42.350274,"longitude":-71.058768},{"name":"Wonga","category_code":"web","description":"","address1":"88 Crawford Street","address2":"","zip_code":"W1H 2EJ","city":"London","state_code":null,"country_code":"GBR","latitude":51.5192042,"longitude":-0.1626103},{"name":"Yugma","category_code":"games_video","description":"YSL Holdings (HQ)","address1":"PO Box 46573","address2":"","zip_code":"55344","city":"Eden Prairie","state_code":"MN","country_code":"USA","latitude":44.865243,"longitude":-93.4094629},{"name":"Attributor","category_code":"software","description":"","address1":"119 South B Street","address2":"Suite A","zip_code":"94401","city":"San Mateo","state_code":"CA","country_code":"USA","latitude":37.453687,"longitude":-122.228595},{"name":"Ceedo Technologies","category_code":"mobile","description":"HQ","address1":"Hamelacha 21","address2":"Park Afek","zip_code":"11695","city":"Rosh Ha'ayin","state_code":null,"country_code":"ISR","latitude":null,"longitude":null},{"name":"IPartee","category_code":"web","description":null,"address1":"","address2":"","zip_code":"","city":"","state_code":null,"country_code":"CAN","latitude":56.130366,"longitude":-106.346771},{"name":"app2you","category_code":"web","description":null,"address1":null,"address2":null,"zip_code":"92037","city":"La Jolla","state_code":"CA","country_code":"USA","latitude":32.847521,"longitude":-117.274609},{"name":"GamerDNA","category_code":"web","description":null,"address1":"","address2":"","zip_code":"","city":"Cambridge","state_code":"MA","country_code":"USA","latitude":42.375392,"longitude":-71.118487},{"name":"Pakt","category_code":"web","description":null,"address1":null,"address2":null,"zip_code":"90293","city":null,"state_code":"CA","country_code":"USA","latitude":33.945553,"longitude":-118.441219},{"name":"mEgo","category_code":"web","description":null,"address1":"1278 South Beverly Glen","address2":null,"zip_code":"90024","city":"Los Angeles","state_code":"CA","country_code":"USA","latitude":34.064491,"longitude":-118.42749},{"name":"CafeScribe","category_code":"web","description":null,"address1":"5320 S. 900 E. Suite 250","address2":null,"zip_code":"84117","city":"Salt Lake City","state_code":"UT","country_code":"AFG","latitude":null,"longitude":null},{"name":"BrightQube","category_code":"ecommerce","description":null,"address1":null,"address2":null,"zip_code":"92009","city":"Carlsbad","state_code":"CA","country_code":"USA","latitude":33.09568,"longitude":-117.244034},{"name":"GroupSwim","category_code":"software","description":null,"address1":"665 3rd Street","address2":"Suite 508","zip_code":"94107","city":"San Francisco","state_code":"CA","country_code":"USA","latitude":37.779558,"longitude":-122.393041},{"name":"Notemarks","category_code":"web","description":null,"address1":"2400 Boston Street, Ste. 201","address2":null,"zip_code":"21224","city":"Baltimore","state_code":"MD","country_code":"USA","latitude":39.281734,"longitude":-76.581864},{"name":"Kaltura","category_code":"software","description":"","address1":"41 East 11th Street, 11th Floor","address2":"","zip_code":"10003","city":"New York","state_code":"NY","country_code":"USA","latitude":null,"longitude":null},{"name":"mPortico","category_code":"mobile","description":null,"address1":"16 Haminhara Street","address2":null,"zip_code":"46586","city":"Herzliya","state_code":null,"country_code":"ISR","latitude":null,"longitude":null},{"name":"Mobivox","category_code":"mobile","description":null,"address1":"651 Notre-Dame West Suite 550","address2":null,"zip_code":null,"city":"Montreal","state_code":null,"country_code":"CAN","latitude":45.500277,"longitude":-73.560084},{"name":"FriendFeed","category_code":"web","description":"","address1":"333 W. Evelyn Ave","address2":"","zip_code":"94041","city":"Mountain View","state_code":"CA","country_code":"USA","latitude":37.39248,"longitude":-122.072612},{"name":"RecipeMatcher","category_code":"web","description":null,"address1":"","address2":null,"zip_code":"92122","city":"","state_code":"CA","country_code":"USA","latitude":32.856744,"longitude":-117.20717},{"name":"Whiskey Media","category_code":"web","description":"HQ","address1":"921 Front St.","address2":"Suite #100","zip_code":"94111","city":"San Francisco","state_code":"CA","country_code":"USA","latitude":37.856331,"longitude":-122.495222},{"name":"CondoDomain","category_code":"web","description":"CondoDomain HQ","address1":"110 Greene Street","address2":"Suite 1109","zip_code":"10012","city":"New York","state_code":"NY","country_code":"USA","latitude":42.349164,"longitude":-71.049346},{"name":"CondoDomain","category_code":"web","description":"Boston Office","address1":"319 A Street","address2":"5th Floor","zip_code":"02210","city":"Boston","state_code":"MA","country_code":"USA","latitude":null,"longitude":null},{"name":"All-Scrap","category_code":"web","description":null,"address1":null,"address2":null,"zip_code":null,"city":null,"state_code":null,"country_code":null,"latitude":null,"longitude":null},{"name":"FeedMorf","category_code":"web","description":null,"address1":"Higher Burton Cottages","address2":null,"zip_code":"DT2 7SA","city":"Higher Burton","state_code":null,"country_code":"GBR","latitude":null,"longitude":null},{"name":"Gydget","category_code":"web","description":null,"address1":"1 Front Street","address2":null,"zip_code":"94111","city":"San Francisco","state_code":"CA","country_code":"USA","latitude":37.791733,"longitude":-122.398398},{"name":"SezWho","category_code":"web","description":null,"address1":"1000 Fremont Avenue, #230","address2":null,"zip_code":"94024","city":"Los Altos","state_code":"CA","country_code":"USA","latitude":37.351894,"longitude":-122.085807},{"name":"BrainKeeper","category_code":"web","description":null,"address1":"5815 Summerlake Way","address2":null,"zip_code":"20120","city":"Centreville","state_code":"VA","country_code":"USA","latitude":38.84919,"longitude":-77.4582},{"name":"Zilok","category_code":"ecommerce","description":null,"address1":"","address2":"","zip_code":"","city":"Brussels","state_code":null,"country_code":"BEL","latitude":50.837051,"longitude":4.367612},{"name":"GotCast","category_code":"games_video","description":null,"address1":"200 S Barrington Ave, # 491141","address2":null,"zip_code":"90049","city":"Los Angleles","state_code":"CA","country_code":"USA","latitude":34.064139,"longitude":-118.468672},{"name":"MerchantCircle","category_code":"web","description":"","address1":"800 W. El Camino Real","address2":"Suite 330","zip_code":"94040","city":"Mountain View","state_code":"CA","country_code":"USA","latitude":null,"longitude":null},{"name":"RealSelf","category_code":"web","description":null,"address1":null,"address2":null,"zip_code":null,"city":"Seattle","state_code":"WA","country_code":"USA","latitude":47.620716,"longitude":-122.347533},{"name":"Zoji","category_code":"web","description":null,"address1":null,"address2":null,"zip_code":null,"city":"Seattle","state_code":"WA","country_code":"USA","latitude":47.620716,"longitude":-122.347533},{"name":"Hark","category_code":"web","description":"Hark Headquarters","address1":"1620 Broadway","address2":"Suite 209","zip_code":"98122","city":"Seattle","state_code":"WA","country_code":"USA","latitude":null,"longitude":null},{"name":"Splunk","category_code":"software","description":"Headquarters","address1":"250 Brannan St.","address2":"","zip_code":"94107","city":"San Francisco","state_code":"CA","country_code":"USA","latitude":37.78274,"longitude":-122.390945},{"name":"Squidoo","category_code":"web","description":"","address1":"","address2":"","zip_code":"10706","city":"Hastings-on-Hudson","state_code":"NY","country_code":"USA","latitude":41.035749,"longitude":-73.865287},{"name":"Picktastic","category_code":"games_video","description":null,"address1":null,"address2":null,"zip_code":"98052","city":null,"state_code":null,"country_code":"USA","latitude":47.680496,"longitude":-122.120938},{"name":"Driftr","category_code":"web","description":null,"address1":"","address2":"","zip_code":"90291","city":"Venice","state_code":"CA","country_code":"USA","latitude":33.994162,"longitude":-118.46371},{"name":"Workface","category_code":"software","description":"World Headquarters","address1":"1500 Jackson St NE","address2":"Suite 294","zip_code":"55413","city":"Minneapolis","state_code":"MN","country_code":"USA","latitude":null,"longitude":null},{"name":"Enforta","category_code":"mobile","description":null,"address1":"Mishina Street 56; Building 2, 6th Floor","address2":null,"zip_code":"127083","city":"Moscow","state_code":null,"country_code":"RUS","latitude":null,"longitude":null},{"name":"Badoo","category_code":"web","description":"London Office","address1":"","address2":"","zip_code":"","city":"London","state_code":null,"country_code":"GBR","latitude":null,"longitude":null},{"name":"Badoo","category_code":"web","description":"San Fransisco Office","address1":"","address2":"","zip_code":"","city":"San Fransisco","state_code":"CA","country_code":"USA","latitude":null,"longitude":null},{"name":"Badoo","category_code":"web","description":"Moscow Office","address1":"","address2":"","zip_code":"","city":"Moscow","state_code":null,"country_code":"RUS","latitude":null,"longitude":null},{"name":"HouseFront","category_code":"web","description":null,"address1":"2150 W 29th Ave Suite 200","address2":null,"zip_code":"80211","city":"Denver","state_code":"CO","country_code":"USA","latitude":39.758126,"longitude":-105.01277},{"name":"WorldTV","category_code":"games_video","description":"Irish Office","address1":"","address2":"","zip_code":"","city":"Limerick","state_code":null,"country_code":"IRL","latitude":52.6638571,"longitude":-8.6267726},{"name":"WorldTV","category_code":"games_video","description":"London Office","address1":"","address2":"","zip_code":"","city":"London","state_code":null,"country_code":"GBR","latitude":51.5001524,"longitude":-0.1262362},{"name":"FutonMedia","category_code":"web","description":null,"address1":"","address2":"","zip_code":"96817","city":"Honolulu","state_code":"HI","country_code":"USA","latitude":21.338849,"longitude":-157.837351},{"name":"Mergelab","category_code":"web","description":null,"address1":"93 S Jackson St #59318","address2":"","zip_code":"98104-2818","city":"Seattle","state_code":"WA","country_code":"USA","latitude":47.599136,"longitude":-122.334393},{"name":"TalentSpring","category_code":"web","description":"","address1":"2033 Sixth Avenue","address2":"Suite 331","zip_code":"98121","city":"Seattle","state_code":"WA","country_code":"USA","latitude":47.680496,"longitude":-122.120938},{"name":"Metromole","category_code":"web","description":null,"address1":"2 Gold Street #710","address2":"","zip_code":"10038","city":"New York","state_code":"NY","country_code":"USA","latitude":40.707253,"longitude":-74.007413},{"name":"Mobiance","category_code":"web","description":null,"address1":"BC-3, Atrium Business Center,","address2":"Coles Road, Frazer Town,","zip_code":"560005","city":"Bangalore","state_code":null,"country_code":"IND","latitude":null,"longitude":null},{"name":"Brownstoner Media","category_code":"web","description":null,"address1":"408 Grand Avenue","address2":"","zip_code":"11238","city":"Brooklyn","state_code":"NY","country_code":"USA","latitude":40.684257,"longitude":-73.961981},{"name":"China-8","category_code":"web","description":null,"address1":"Room 508, Mui Wo Building","address2":"Mui Wo","zip_code":"HK","city":"Lantau Island","state_code":null,"country_code":"HKG","latitude":22.266141,"longitude":113.997909},{"name":"LittleEngine","category_code":"web","description":null,"address1":"3017 Douglas Blvd.","address2":"Suite 300","zip_code":"95661","city":"Roseville","state_code":"CA","country_code":"USA","latitude":38.744194,"longitude":-121.234636},{"name":"ManageMyAdvertising","category_code":"web","description":null,"address1":"","address2":"","zip_code":"94111","city":"San Francisco","state_code":"CA","country_code":"USA","latitude":37.798853,"longitude":-122.398599},{"name":"Fortify Software","category_code":"software","description":"Corporate Headquarters","address1":"2215 Bridgepointe Parkway","address2":"Suite 400","zip_code":"94404","city":"San Mateo","state_code":"CA","country_code":"USA","latitude":37.560781,"longitude":-122.284114},{"name":"Ownersite Technologies","category_code":"web","description":"Headquarters","address1":"885 Woodstock Road","address2":"Suite 430-187","zip_code":"30075-2274","city":"Roswell","state_code":"GA","country_code":"USA","latitude":34.016362,"longitude":-84.322687},{"name":"Group2call","category_code":"mobile","description":null,"address1":"","address2":"","zip_code":"","city":"","state_code":"FL","country_code":"USA","latitude":null,"longitude":null},{"name":"World Reviewer","category_code":"games_video","description":null,"address1":"129 Canalot Studios","address2":"222 Kensal Road","zip_code":"W8 5QH","city":"London","state_code":null,"country_code":"GBR","latitude":null,"longitude":null},{"name":"Popularo","category_code":"web","description":null,"address1":"","address2":"","zip_code":"","city":"Philadelphia","state_code":"PA","country_code":"USA","latitude":39.951639,"longitude":-75.163808},{"name":"Animax Entertainment","category_code":"games_video","description":null,"address1":"6627 Valjean Avenue","address2":"","zip_code":"91406","city":"Van Nuys","state_code":"CA","country_code":"USA","latitude":34.19099,"longitude":-118.486428},{"name":"NAVIS","category_code":"software","description":null,"address1":"40 NW Greenwood Ave.","address2":"","zip_code":"97701","city":"Bend","state_code":"OR","country_code":"USA","latitude":44.059936,"longitude":-121.307839},{"name":"Folkstr","category_code":"web","description":null,"address1":null,"address2":null,"zip_code":null,"city":null,"state_code":null,"country_code":null,"latitude":null,"longitude":null},{"name":"I-stats","category_code":"web","description":"","address1":"","address2":"","zip_code":"H3H1K4","city":"Montreal","state_code":null,"country_code":"CAN","latitude":40.048078,"longitude":-105.38018},{"name":"Asterpix","category_code":"web","description":null,"address1":"4340 Stevens Creek Blvd #191","address2":"","zip_code":"95129","city":"San Jose","state_code":"CA","country_code":"USA","latitude":37.321798,"longitude":-121.979453},{"name":"VZnet Netzwerke","category_code":"web","description":"","address1":"Saarbr\u00fccker Strasse 38","address2":"","zip_code":"10405","city":"Berlin","state_code":null,"country_code":"DEU","latitude":52.5290751,"longitude":13.4161514},{"name":"Eyealike","category_code":"software","description":null,"address1":"Sunset Corporate Campus I","address2":"13810 SE Eastgate Way, Suite 320","zip_code":"98005","city":"Bellevue","state_code":"WA","country_code":"USA","latitude":null,"longitude":null},{"name":"Playfish","category_code":"games_video","description":"Corporate Headquarters","address1":"125 Kensington High St","address2":"W8 5SF","zip_code":"London","city":"London","state_code":null,"country_code":"GBR","latitude":51.4991094,"longitude":-0.1984802},{"name":"Playfish","category_code":"games_video","description":"Playfish Arctic","address1":"Strandvn. 106","address2":"","zip_code":"9291","city":"Troms\u00c3\u00b8","state_code":null,"country_code":"NOR","latitude":69.636216,"longitude":18.931062},{"name":"tunesBag","category_code":"games_video","description":"","address1":"Erdbergasse 10\/38","address2":"","zip_code":"1030","city":"Vienna","state_code":null,"country_code":"AUT","latitude":null,"longitude":null},{"name":"Infovark","category_code":"software","description":null,"address1":"10104 Bushman Drive","address2":"","zip_code":"22124","city":"Oakton","state_code":"VA","country_code":"USA","latitude":38.875724,"longitude":-77.294526},{"name":"RelevantMind","category_code":"web","description":null,"address1":"1106 Grizzly Peak Blvd.","address2":"","zip_code":"94708","city":"Berkeley","state_code":"CA","country_code":"USA","latitude":37.892301,"longitude":-122.256239},{"name":"GotVoice","category_code":"mobile","description":null,"address1":"10512 NE 68th Street","address2":"","zip_code":"98033","city":"Kirkland","state_code":"WA","country_code":"USA","latitude":47.666791,"longitude":-122.199525},{"name":"Bango","category_code":"mobile","description":"Bango","address1":"5 Westbrook Centre","address2":"Milton Road","zip_code":"CB4 1YG","city":"Cambridge","state_code":null,"country_code":"GBR","latitude":52.2155382,"longitude":0.124024},{"name":"Bango","category_code":"mobile","description":"USA","address1":"20 West 22nd Street","address2":"Suite 906","zip_code":"10010","city":"New York","state_code":"NY","country_code":"USA","latitude":40.7412488,"longitude":-73.9912518},{"name":"Fresho","category_code":"web","description":null,"address1":"","address2":"","zip_code":"","city":"","state_code":null,"country_code":"LVA","latitude":56.879635,"longitude":24.603189},{"name":"Berkeley Design Automation","category_code":"software","description":"HQ","address1":"2500 Augustine","address2":"Suite 201","zip_code":"95154","city":"Santa Clara","state_code":"CA","country_code":"USA","latitude":37.374659,"longitude":-121.970209},{"name":"TheNextBigWriter","category_code":"web","description":null,"address1":"P.O. Box 610383","address2":"","zip_code":"02461","city":"Newton","state_code":"MA","country_code":"USA","latitude":42.314007,"longitude":-71.20848},{"name":"HRSnap! Corporation","category_code":"software","description":null,"address1":"848 N. Rainbow Blvd. #2398","address2":"","zip_code":"89107","city":"Las Vegas","state_code":"NV","country_code":"USA","latitude":36.180757,"longitude":-115.242203},{"name":"Myplaylist","category_code":"games_video","description":null,"address1":"","address2":"","zip_code":"","city":"","state_code":null,"country_code":"IND","latitude":20.593684,"longitude":78.96288},{"name":"GroupSpaces","category_code":"software","description":"Headquarters","address1":"","address2":"","zip_code":"EC1Y 2BP","city":"London","state_code":null,"country_code":"GBR","latitude":null,"longitude":null},{"name":"GroupSpaces","category_code":"software","description":"U.S. Office","address1":"","address2":"","zip_code":"","city":"New York","state_code":"NY","country_code":"ARA","latitude":null,"longitude":null},{"name":"83 Degrees","category_code":"web","description":"","address1":"","address2":"","zip_code":"94941","city":"Mill Valley","state_code":"CA","country_code":"USA","latitude":37.904468,"longitude":-122.542491},{"name":"Acme Mobile","category_code":"mobile","description":null,"address1":"50 B Tras Street","address2":"","zip_code":"078989","city":"Singapore","state_code":null,"country_code":"SGP","latitude":1.278031,"longitude":103.84435},{"name":"Trovit","category_code":"ecommerce","description":"","address1":"Diagonal 601, 9\u00aa","address2":"","zip_code":"08028","city":"Barcelona","state_code":null,"country_code":"ESP","latitude":41.388769,"longitude":2.1299487},{"name":"The Beer Mapping Project","category_code":"web","description":null,"address1":"2434 N Spaulding Ave","address2":"","zip_code":"60647","city":"Chicago","state_code":"IL","country_code":"USA","latitude":41.925823,"longitude":-87.711114},{"name":"Iminent","category_code":"software","description":"","address1":"20 rue Bouvier","address2":"","zip_code":"75011","city":"Paris","state_code":null,"country_code":"FRA","latitude":48.8522431,"longitude":2.387422},{"name":"Picoy","category_code":"web","description":null,"address1":null,"address2":null,"zip_code":null,"city":null,"state_code":null,"country_code":null,"latitude":null,"longitude":null},{"name":"Mercury Intermedia","category_code":"software","description":null,"address1":"214 Overlook Court","address2":"Suite 220","zip_code":"37027","city":"Brentwood","state_code":"TN","country_code":"USA","latitude":36.030702,"longitude":-86.776051},{"name":"Bizooki","category_code":"web","description":null,"address1":"","address2":"","zip_code":"37203","city":"Nashville","state_code":"TN","country_code":"USA","latitude":36.158887,"longitude":-86.782056},{"name":"Bizooki","category_code":"web","description":"Headquarters","address1":"","address2":"","zip_code":"44115","city":"Cleveland","state_code":"OH","country_code":"USA","latitude":null,"longitude":null},{"name":"Superblock","category_code":"web","description":"","address1":"PO Box 40162","address2":"","zip_code":"85717","city":"Tucson","state_code":"AZ","country_code":"USA","latitude":42.233847,"longitude":-88.373701},{"name":"SuperVirals","category_code":"games_video","description":null,"address1":"5\/50 Reservoir St","address2":"","zip_code":"2010","city":"Surry Hills","state_code":null,"country_code":"AUS","latitude":-33.88106,"longitude":151.209351},{"name":"Voices","category_code":"ecommerce","description":"","address1":"150 Dufferin Ave","address2":"","zip_code":"N6A 5N6","city":"London","state_code":null,"country_code":"CAN","latitude":43.014006,"longitude":-81.280364},{"name":"Android","category_code":"mobile","description":"","address1":"156 University Ave","address2":"","zip_code":"94301-1631","city":"Palo Alto","state_code":"CA","country_code":"USA","latitude":37.4440613,"longitude":-122.1629397},{"name":"TraceWorks","category_code":"software","description":"","address1":"# Amagertorv 1, 3rd floor # DK-1160","address2":"","zip_code":"","city":"Copenhagen K","state_code":null,"country_code":"DNK","latitude":55.678672,"longitude":12.579241},{"name":"Empire Group","category_code":"web","description":null,"address1":"1306 NW Hoyt St","address2":"Suite 306","zip_code":"97209","city":"Portland","state_code":"OR","country_code":"USA","latitude":45.527202,"longitude":-122.684376},{"name":"Conenza","category_code":"software","description":"","address1":"810 Third Ave","address2":"Suite 730","zip_code":"98104","city":"Seattle","state_code":"WA","country_code":"USA","latitude":47.603176,"longitude":-122.3333044},{"name":"Your Survival","category_code":"web","description":"","address1":"PO Box 731","address2":"","zip_code":"06890","city":"Southport","state_code":"CT","country_code":"USA","latitude":41.137996,"longitude":-73.34415},{"name":"Cellity","category_code":"mobile","description":null,"address1":"Stahltwiete 23","address2":"","zip_code":"22761","city":"Hamburg","state_code":null,"country_code":"DEU","latitude":53.563564,"longitude":9.926475},{"name":"TerraPass","category_code":"web","description":"","address1":"527 Howard St.","address2":"4th Floor","zip_code":"94105","city":"San Francisco","state_code":"CA","country_code":"USA","latitude":37.787445,"longitude":-122.397847},{"name":"Pixaria","category_code":"software","description":"","address1":"","address2":"","zip_code":"","city":"Missisauga","state_code":null,"country_code":"CAN","latitude":43.653226,"longitude":-79.3831843},{"name":"Locify","category_code":"mobile","description":null,"address1":"6 Bexley Square","address2":"Salford","zip_code":"M3 6BZ","city":"Manchester","state_code":null,"country_code":"GBR","latitude":53.48336,"longitude":-2.259258},{"name":"Sxip Identity","category_code":"web","description":null,"address1":"798 Beatty Street","address2":"","zip_code":"V6B 2M1","city":"Vancouver","state_code":null,"country_code":"CAN","latitude":49.277599,"longitude":-123.113946},{"name":"Versaly Entertainment","category_code":"mobile","description":"Main Office","address1":"","address2":"","zip_code":"98004","city":"Bellevue","state_code":"WA","country_code":"USA","latitude":47.626479,"longitude":-122.205149},{"name":"OneScreen","category_code":"games_video","description":"OneScreen Headquarters","address1":"310 Commerce, Suite 200","address2":"","zip_code":"92602","city":"Irvine","state_code":"CA","country_code":"USA","latitude":null,"longitude":null},{"name":"PageUp People","category_code":"software","description":"","address1":"Level 10","address2":"91 William St","zip_code":"3000","city":"Melbourne, VIC","state_code":null,"country_code":"AUS","latitude":-38.372965,"longitude":144.816292},{"name":"PageUp People","category_code":"software","description":"","address1":"10475 Medlock Bridge Rd","address2":"Suite 310","zip_code":"30097","city":"Johns Creek","state_code":"GA","country_code":"USA","latitude":42.377224,"longitude":-76.295126},{"name":"PageUp People","category_code":"software","description":"","address1":"11-15 Betterton St","address2":"Covent Garden","zip_code":"WC2H 9BP","city":"London","state_code":null,"country_code":"GBR","latitude":51.515124,"longitude":-0.123614},{"name":"PageUp People","category_code":"software","description":"","address1":"Room 2102, Building A Shanghai Universal Mansion No. 172,","address2":"Yu Yuan Rd","zip_code":"200040","city":"Jing'an District, Shanghai","state_code":null,"country_code":"CHN","latitude":null,"longitude":null},{"name":"Jigsaw","category_code":"web","description":"","address1":"777 Mariners Island Boulevard","address2":"4th Floor","zip_code":"94404","city":"San Mateo","state_code":"CA","country_code":"USA","latitude":37.552806,"longitude":-122.291602},{"name":"Inertia Beverage Group","category_code":"software","description":"HQ","address1":"1190 Airport Boulevard","address2":"Napa Valley Gateway Plaza, Suite 200","zip_code":"94558","city":"Napa","state_code":"CA","country_code":"USA","latitude":38.223032,"longitude":-122.261642},{"name":"Coolboysoft","category_code":"software","description":null,"address1":"","address2":"","zip_code":"","city":"","state_code":null,"country_code":"CAN","latitude":56.130366,"longitude":-106.346771},{"name":"Limbo","category_code":"mobile","description":"HQ","address1":"270 East Lane","address2":"Suite 1","zip_code":"94010","city":"Burlingame","state_code":"CA","country_code":"USA","latitude":37.580304,"longitude":-122.343679},{"name":"Jungle Jam Tv","category_code":"games_video","description":null,"address1":"","address2":"","zip_code":"","city":"Bologna","state_code":null,"country_code":"ITA","latitude":44.494446,"longitude":11.349231},{"name":"Muecs","category_code":"software","description":"Hong Kong Office","address1":"Unit 208A 2\/F, Enterprise Place (Building 9),","address2":"No.5 Science Park West Ave.,","zip_code":"","city":"Shatin","state_code":null,"country_code":"HKG","latitude":null,"longitude":null},{"name":"Syntac Ventures","category_code":"software","description":"HQ","address1":"","address2":"","zip_code":"3000","city":"Melbourne","state_code":null,"country_code":"AUS","latitude":-37.813339,"longitude":144.970823},{"name":"Ziippi","category_code":"web","description":"Ziippi","address1":"228 Hamilton Avenue","address2":"4th Floor","zip_code":"94301","city":"Palo Alto","state_code":"CA","country_code":"USA","latitude":37.4440981,"longitude":-122.1612868},{"name":"Fashionspace","category_code":"ecommerce","description":"","address1":"F5 Hirzel Court","address2":"","zip_code":"GY1 4HU","city":"Guernsey","state_code":null,"country_code":"GBR","latitude":null,"longitude":null},{"name":"Overstream","category_code":"games_video","description":"","address1":"235 Montgomery St.","address2":"Suite 600","zip_code":"94104","city":"San Francisco","state_code":"CA","country_code":"USA","latitude":37.791391,"longitude":-122.402859},{"name":"Yovia","category_code":"web","description":"Home Office","address1":"2583 Mayport Road","address2":"Suite 101","zip_code":"32233","city":"Atlantic Beach","state_code":"FL","country_code":"USA","latitude":30.3592737,"longitude":-81.4128706},{"name":"Tatango","category_code":"mobile","description":"Tatango Office","address1":"2211 Elliott Avenue","address2":"Suite 200","zip_code":"98121","city":"Bellingham","state_code":"WA","country_code":"USA","latitude":48.8784787,"longitude":-122.6242375},{"name":"Ounce Labs","category_code":"software","description":"Main Office","address1":"100 Fifth Ave","address2":"","zip_code":"02451","city":"Waltham","state_code":"MA","country_code":"USA","latitude":42.393662,"longitude":-71.255855},{"name":"InThrMa","category_code":"software","description":"HQ","address1":"PO Box 10001","address2":"","zip_code":"94610","city":"Oakland","state_code":"CA","country_code":"USA","latitude":37.810448,"longitude":-122.239864},{"name":"Arkiva","category_code":"software","description":null,"address1":null,"address2":null,"zip_code":null,"city":null,"state_code":null,"country_code":null,"latitude":null,"longitude":null},{"name":"Chapatiz","category_code":"games_video","description":"","address1":"P\u00c3\u00a9pini\u00c3\u00a8re Contenus Num\u00c3\u00a9riques","address2":"80 rue des haies","zip_code":"75020","city":"Paris","state_code":null,"country_code":"FRA","latitude":null,"longitude":null},{"name":"YOOWALK","category_code":"games_video","description":"","address1":"28 rue Fr\u00c3\u00a9micourt","address2":"","zip_code":"75015","city":"Paris","state_code":null,"country_code":"FRA","latitude":48.8475487,"longitude":2.2992348},{"name":"Urbanspoon","category_code":"web","description":"","address1":"117 E. Louisa St.","address2":"#451","zip_code":"98102","city":"Seattle","state_code":"WA","country_code":"USA","latitude":47.6420401,"longitude":-122.3263922},{"name":"4chan","category_code":"web","description":null,"address1":null,"address2":null,"zip_code":null,"city":null,"state_code":null,"country_code":null,"latitude":null,"longitude":null},{"name":"LenderFlex","category_code":"software","description":"Headquarters","address1":"P.O. Box 191054","address2":"","zip_code":"31119-1054","city":"Atlanta","state_code":"GA","country_code":"USA","latitude":33.75,"longitude":-84.2995},{"name":"Noter","category_code":"web","description":"Waterloo Office","address1":"Suite 23","address2":"250 Keats Way","zip_code":"N2L5H3","city":"Waterloo","state_code":null,"country_code":"CAN","latitude":null,"longitude":null},{"name":"Zendesk","category_code":"software","description":"Headquarters","address1":"989 Market St","address2":"St 300","zip_code":"94102","city":"San Francisco","state_code":"CA","country_code":"USA","latitude":55.676294,"longitude":12.568116},{"name":"Webalytics","category_code":"web","description":"HQ","address1":"","address2":"","zip_code":"","city":"Lexington","state_code":"KY","country_code":"USA","latitude":38.048906,"longitude":-84.499838},{"name":"Ocean Online Group","category_code":"web","description":"","address1":"200 North Michigan Ave","address2":"Suite #500","zip_code":"60601","city":"Chicago","state_code":"IL","country_code":"USA","latitude":41.886088,"longitude":-87.624983},{"name":"Scriblink","category_code":"web","description":null,"address1":null,"address2":null,"zip_code":null,"city":null,"state_code":null,"country_code":null,"latitude":null,"longitude":null},{"name":"ListerTalent","category_code":"mobile","description":"Head Office","address1":"7 Maplespeen Court","address2":"Old Bath Road","zip_code":"RG14 1NL","city":"Newbury","state_code":null,"country_code":"GBR","latitude":51.405977,"longitude":-1.329241},{"name":"KDDI","category_code":"mobile","description":"Headquarters","address1":"Garden Air Tower, 10-10","address2":"Iidabashi 3-chome, Chiyoda-ku","zip_code":"102-8460","city":"Tokyo","state_code":null,"country_code":"JPN","latitude":null,"longitude":null},{"name":"KDDI","category_code":"mobile","description":"KDDI Open Innovation Fund","address1":"","address2":"","zip_code":"","city":"San Francisco","state_code":"CA","country_code":"USA","latitude":null,"longitude":null},{"name":"Bridgevest eSolutions","category_code":"software","description":"Rotterdam","address1":"Westblaak 180","address2":"","zip_code":"3012KN","city":"Rotterdam","state_code":null,"country_code":"NLD","latitude":51.916547,"longitude":4.475797},{"name":"J-Magic","category_code":"mobile","description":"Headquarter","address1":"3-4-30 Shiba Koen, 32 Shiba Koen Bldg. 10F","address2":"Minato-Ku","zip_code":"105-0011","city":"Tokyo","state_code":null,"country_code":"JPN","latitude":null,"longitude":null},{"name":"Alpha Systems Ltd  ( Mauritius )","category_code":"ecommerce","description":"Alpha Systems Ltd","address1":"8 Leonce Loiseau Street","address2":"","zip_code":"","city":"Port Louis","state_code":null,"country_code":"MUS","latitude":null,"longitude":null},{"name":"DailyBurn","category_code":"web","description":"","address1":"555 West 18th Street","address2":"","zip_code":"10011","city":"New York","state_code":"NY","country_code":"USA","latitude":null,"longitude":null},{"name":"Dada Entertainment","category_code":"mobile","description":"Headquarters","address1":"11 West 42nd Street","address2":"15th Floor","zip_code":"10036","city":"New York","state_code":"NY","country_code":"USA","latitude":40.7543,"longitude":-73.981847},{"name":"MicroBilt Corporation","category_code":"software","description":"Kennesaw Office","address1":"1640 Airport Rd","address2":"Suite 115","zip_code":"30144","city":"Kennesaw","state_code":"GA","country_code":"USA","latitude":34.011396,"longitude":-84.597071},{"name":"MicroBilt Corporation","category_code":"software","description":"New Jersey Office","address1":"100 Canal Pointe Blvd","address2":"Suite 208","zip_code":"08540-7063","city":"Princeton","state_code":"NJ","country_code":"USA","latitude":40.316317,"longitude":-74.661093},{"name":"Yerbabuena Software","category_code":"software","description":"Office","address1":"Alessandro Volta 2, Oficina 18","address2":"","zip_code":"29590","city":"Madrid","state_code":null,"country_code":"ESP","latitude":null,"longitude":null},{"name":"QuirkyOnline","category_code":"web","description":null,"address1":null,"address2":null,"zip_code":null,"city":null,"state_code":null,"country_code":null,"latitude":null,"longitude":null},{"name":"KDDI","category_code":"mobile","description":"Headquarters","address1":"Garden Air Tower, 10-10","address2":"Iidabashi 3-chome, Chiyoda-ku","zip_code":"102-8460","city":"Tokyo","state_code":null,"country_code":"JPN","latitude":null,"longitude":null},{"name":"KDDI","category_code":"mobile","description":"KDDI Open Innovation Fund","address1":"","address2":"","zip_code":"","city":"San Francisco","state_code":"CA","country_code":"USA","latitude":null,"longitude":null},{"name":"Bridgevest eSolutions","category_code":"software","description":"Rotterdam","address1":"Westblaak 180","address2":"","zip_code":"3012KN","city":"Rotterdam","state_code":null,"country_code":"NLD","latitude":51.916547,"longitude":4.475797},{"name":"J-Magic","category_code":"mobile","description":"Headquarter","address1":"3-4-30 Shiba Koen, 32 Shiba Koen Bldg. 10F","address2":"Minato-Ku","zip_code":"105-0011","city":"Tokyo","state_code":null,"country_code":"JPN","latitude":null,"longitude":null},{"name":"Alpha Systems Ltd  ( Mauritius )","category_code":"ecommerce","description":"Alpha Systems Ltd","address1":"8 Leonce Loiseau Street","address2":"","zip_code":"","city":"Port Louis","state_code":null,"country_code":"MUS","latitude":null,"longitude":null},{"name":"DailyBurn","category_code":"web","description":"","address1":"555 West 18th Street","address2":"","zip_code":"10011","city":"New York","state_code":"NY","country_code":"USA","latitude":null,"longitude":null},{"name":"Dada Entertainment","category_code":"mobile","description":"Headquarters","address1":"11 West 42nd Street","address2":"15th Floor","zip_code":"10036","city":"New York","state_code":"NY","country_code":"USA","latitude":40.7543,"longitude":-73.981847},{"name":"MicroBilt Corporation","category_code":"software","description":"Kennesaw Office","address1":"1640 Airport Rd","address2":"Suite 115","zip_code":"30144","city":"Kennesaw","state_code":"GA","country_code":"USA","latitude":34.011396,"longitude":-84.597071},{"name":"MicroBilt Corporation","category_code":"software","description":"New Jersey Office","address1":"100 Canal Pointe Blvd","address2":"Suite 208","zip_code":"08540-7063","city":"Princeton","state_code":"NJ","country_code":"USA","latitude":40.316317,"longitude":-74.661093},{"name":"Yerbabuena Software","category_code":"software","description":"Office","address1":"Alessandro Volta 2, Oficina 18","address2":"","zip_code":"29590","city":"Madrid","state_code":null,"country_code":"ESP","latitude":null,"longitude":null},{"name":"QuirkyOnline","category_code":"web","description":null,"address1":null,"address2":null,"zip_code":null,"city":null,"state_code":null,"country_code":null,"latitude":null,"longitude":null},{"name":"For Art's Sake Media","category_code":"web","description":null,"address1":null,"address2":null,"zip_code":null,"city":null,"state_code":null,"country_code":null,"latitude":null,"longitude":null},{"name":"SEEDCORE GROUP","category_code":"ecommerce","description":"","address1":"101\/B, Pranay Sudarshan, M.G.Road","address2":"","zip_code":"400077","city":"Mumbai","state_code":null,"country_code":"IND","latitude":null,"longitude":null},{"name":"IMDB","category_code":"web","description":"","address1":"","address2":"","zip_code":"","city":"Seattle","state_code":"WA","country_code":"USA","latitude":null,"longitude":null},{"name":"eSchedule","category_code":"software","description":"Inglewood Office","address1":"#200 - 1212 9th Avenue SE","address2":"","zip_code":"T2G 0T1","city":"Calgary","state_code":null,"country_code":"CAN","latitude":null,"longitude":null},{"name":"OUTSHOUTS","category_code":"games_video","description":"Main Office","address1":"","address2":"","zip_code":"","city":"Menlo Park","state_code":"CA","country_code":"USA","latitude":37.48413,"longitude":-122.169472},{"name":"Designious","category_code":"web","description":null,"address1":null,"address2":null,"zip_code":null,"city":null,"state_code":null,"country_code":null,"latitude":null,"longitude":null},{"name":"RealScoop","category_code":"web","description":null,"address1":null,"address2":null,"zip_code":null,"city":null,"state_code":null,"country_code":null,"latitude":null,"longitude":null},{"name":"PocketNumerix","category_code":"mobile","description":"","address1":"","address2":"","zip_code":"","city":"","state_code":null,"country_code":"USA","latitude":null,"longitude":null},{"name":"HyperTEK Corporation","category_code":"ecommerce","description":"Headquarters","address1":"575 E Big Beaver Rd","address2":"Ste 265","zip_code":"48083-1398","city":"Troy","state_code":"MI","country_code":"USA","latitude":42.56349,"longitude":-83.136514},{"name":"WiredRed","category_code":"software","description":"Worldwide HQ","address1":"9350 Waxie Way, Ste. 100","address2":"","zip_code":"92123","city":"San Diego","state_code":"CA","country_code":"USA","latitude":32.84014,"longitude":-117.124214},{"name":"WiredRed","category_code":"software","description":"European Head Office","address1":"1 Old Market Avenue","address2":"","zip_code":"PO19 1SP","city":"Chichester","state_code":null,"country_code":"GBR","latitude":50.833935,"longitude":-0.779497},{"name":"arth infosoft pvt ltd","category_code":"web","description":"","address1":"120,IT Tower-1,Infocity","address2":"","zip_code":"382009","city":"Gandhinagar","state_code":null,"country_code":"IND","latitude":null,"longitude":null},{"name":"CSS Rainbow","category_code":"ecommerce","description":null,"address1":null,"address2":null,"zip_code":null,"city":null,"state_code":null,"country_code":null,"latitude":null,"longitude":null},{"name":"DualPage","category_code":"web","description":null,"address1":null,"address2":null,"zip_code":null,"city":null,"state_code":null,"country_code":null,"latitude":null,"longitude":null},{"name":"BrushVideo","category_code":"games_video","description":"Brussels","address1":"","address2":"","zip_code":"","city":"","state_code":null,"country_code":"BEL","latitude":null,"longitude":null},{"name":"Sentrigo","category_code":"software","description":"HQ","address1":"2620 Augustine Dr","address2":"Suite 145","zip_code":"95054","city":"Santa Clara","state_code":"CA","country_code":"USA","latitude":37.55911,"longitude":-122.303493},{"name":"Sentrigo","category_code":"software","description":"North American Sales","address1":"155M New Boston St.","address2":"Suite 130","zip_code":"01801","city":"Woburn","state_code":"MA","country_code":"USA","latitude":42.508719,"longitude":-71.144313},{"name":"Sentrigo","category_code":"software","description":"International Sales","address1":"2 Hanagar St.","address2":"PO Box 2340","zip_code":"44425","city":"Kfar Saba","state_code":null,"country_code":"ISR","latitude":null,"longitude":null},{"name":"Xtreme Widgets","category_code":"web","description":"Los Angeles","address1":"4221 Redwood Ave.","address2":"","zip_code":"90066","city":"Los Angeles","state_code":"CA","country_code":"USA","latitude":33.988687,"longitude":-118.439532},{"name":"Bleacher Advisor","category_code":"web","description":"Headquarters","address1":"Main Street","address2":"","zip_code":"","city":"Spring Hill","state_code":"FL","country_code":"USA","latitude":28.552044,"longitude":-82.55582},{"name":"StellarSurvey","category_code":"software","description":"","address1":"4481 N Ardmore Ave","address2":"","zip_code":"53211","city":"Milwaukee","state_code":"WI","country_code":"USA","latitude":43.097697,"longitude":-87.895093},{"name":"Klection","category_code":"games_video","description":null,"address1":null,"address2":null,"zip_code":null,"city":null,"state_code":null,"country_code":null,"latitude":null,"longitude":null},{"name":"CampusBuddy","category_code":"web","description":null,"address1":null,"address2":null,"zip_code":null,"city":null,"state_code":null,"country_code":null,"latitude":null,"longitude":null},{"name":"TripyNote","category_code":"web","description":null,"address1":null,"address2":null,"zip_code":null,"city":null,"state_code":null,"country_code":null,"latitude":null,"longitude":null},{"name":"IntelliProject","category_code":"software","description":null,"address1":null,"address2":null,"zip_code":null,"city":null,"state_code":null,"country_code":null,"latitude":null,"longitude":null},{"name":"ReverbNation","category_code":"software","description":"ReverbNation HQ","address1":"115 N Duke St.","address2":"Suite 2A","zip_code":"27701","city":"Durham","state_code":"NC","country_code":"USA","latitude":36.002893,"longitude":-78.904075},{"name":"ReverbNation","category_code":"software","description":"ReverbNation NYC","address1":"555 8th Ave","address2":"Suite 909","zip_code":"10008","city":"New York","state_code":"NY","country_code":"USA","latitude":40.718888,"longitude":-74.001169},{"name":"SureSpeak","category_code":"games_video","description":"Chicago Office","address1":"29 S Lasalle St","address2":"Suite 1205","zip_code":"60603","city":"Chicago","state_code":"IL","country_code":"USA","latitude":41.889183,"longitude":-87.632519},{"name":"Mobile Factory","category_code":"mobile","description":null,"address1":null,"address2":null,"zip_code":null,"city":null,"state_code":null,"country_code":null,"latitude":null,"longitude":null},{"name":"Blog to it","category_code":"web","description":"","address1":"","address2":"","zip_code":"","city":"Abergavenny","state_code":null,"country_code":"GBR","latitude":51.824849,"longitude":-3.020908},{"name":"My Shelter Helper","category_code":"web","description":null,"address1":null,"address2":null,"zip_code":null,"city":null,"state_code":null,"country_code":null,"latitude":null,"longitude":null},{"name":"DailyMarkets","category_code":"web","description":"New York Headquarters","address1":"14 Wall St. 20 Fl","address2":"","zip_code":"10005","city":"New York","state_code":"NY","country_code":"USA","latitude":null,"longitude":null},{"name":"Purchance!","category_code":"ecommerce","description":null,"address1":null,"address2":null,"zip_code":null,"city":null,"state_code":null,"country_code":null,"latitude":null,"longitude":null},{"name":"tinyConvo","category_code":"web","description":null,"address1":null,"address2":null,"zip_code":null,"city":null,"state_code":null,"country_code":null,"latitude":null,"longitude":null},{"name":"Asyncast Corporation","category_code":"mobile","description":"Headquarters","address1":"901 Campisi Way, Suite 340","address2":"","zip_code":"95008","city":"Campbell","state_code":"CA","country_code":"USA","latitude":37.291228,"longitude":-121.933651},{"name":"myclasswiz","category_code":"web","description":null,"address1":null,"address2":null,"zip_code":null,"city":null,"state_code":null,"country_code":null,"latitude":null,"longitude":null},{"name":"GigaShift","category_code":"web","description":null,"address1":null,"address2":null,"zip_code":null,"city":null,"state_code":null,"country_code":null,"latitude":null,"longitude":null},{"name":"ThisCouldBeHUGE!","category_code":"web","description":null,"address1":null,"address2":null,"zip_code":null,"city":null,"state_code":null,"country_code":null,"latitude":null,"longitude":null},{"name":"Clearwire","category_code":"mobile","description":"","address1":"4400 Caillon Point","address2":"","zip_code":"98033","city":"Kirkland","state_code":"WA","country_code":"USA","latitude":30.6324797,"longitude":-86.9843446},{"name":"clearTXT","category_code":"mobile","description":"","address1":"133 Keybridge Dr","address2":"Suite C","zip_code":"27560","city":"Morrisville","state_code":"NC","country_code":"USA","latitude":35.820365,"longitude":-78.821516},{"name":"Family-Mingle","category_code":"web","description":null,"address1":null,"address2":null,"zip_code":null,"city":null,"state_code":null,"country_code":null,"latitude":null,"longitude":null},{"name":"TubeSpree","category_code":"games_video","description":"Main Office","address1":"601 Van Ness Ave","address2":"Suite E-112","zip_code":"94102-3200","city":"San Francisco","state_code":"CA","country_code":"USA","latitude":37.781386,"longitude":-122.421406},{"name":"Aghreni Technologies","category_code":"software","description":"India Office","address1":"335 Double Road","address2":"Indiranagar 1st Stage","zip_code":"560038","city":"Bangalore","state_code":null,"country_code":"IND","latitude":12.9561278,"longitude":77.5922642},{"name":"Aghreni Technologies","category_code":"software","description":"USA Office","address1":"246, Fifth Avenue","address2":"Ste. 301","zip_code":"10001","city":"New York","state_code":"NY","country_code":"USA","latitude":40.744549,"longitude":-73.988071},{"name":"fruux","category_code":"web","description":"","address1":"","address2":"","zip_code":"48143","city":"Muenster","state_code":null,"country_code":"DEU","latitude":51.9630088,"longitude":7.6267552},{"name":"Allure Media","category_code":"web","description":"","address1":"Level 4","address2":"177-185 William St","zip_code":"2010","city":"Darlinghurst","state_code":null,"country_code":"AUS","latitude":-33.8719926,"longitude":151.1936039},{"name":"MovieFlix","category_code":"games_video","description":"","address1":"8108 W 4th St.","address2":"","zip_code":"90048","city":"Los Angeles","state_code":"CA","country_code":"USA","latitude":34.070146,"longitude":-118.365526},{"name":"NOM","category_code":"web","description":"New York Headquarters","address1":"964 Flushing Ave","address2":"First Floor","zip_code":"11206","city":"Brooklyn","state_code":"NY","country_code":"USA","latitude":40.740672,"longitude":-73.992632},{"name":"NOM","category_code":"web","description":"Tokyo Office","address1":"1-23-3 Higashi","address2":"Shibuya-ku","zip_code":"150-011","city":"Tokyo","state_code":null,"country_code":"JPN","latitude":null,"longitude":null},{"name":"PharmiWeb Solutions","category_code":"web","description":"PharmiWeb Solutions HQ","address1":"Abbey House","address2":"Grenville Place","zip_code":"RG12 1BP","city":"Bracknell","state_code":null,"country_code":"GBR","latitude":null,"longitude":null},{"name":"CentPoker","category_code":"web","description":null,"address1":null,"address2":null,"zip_code":null,"city":null,"state_code":null,"country_code":null,"latitude":null,"longitude":null},{"name":"InnovSoft Consulting Limited","category_code":"games_video","description":"Canada","address1":"3860 Notre Dame","address2":"Suite 304","zip_code":"H7V 1S1","city":"Laval","state_code":null,"country_code":"CAN","latitude":45.5411602,"longitude":-73.7481222},{"name":"Storenvy","category_code":"ecommerce","description":"Storenvy HQ","address1":"2111 Mission St","address2":"Ste 400","zip_code":"94110","city":"San Francisco","state_code":"CA","country_code":"USA","latitude":null,"longitude":null},{"name":"OpenText","category_code":"software","description":"Headquarter","address1":"275 Frank Tompa Dr","address2":"","zip_code":"N2L 0A1","city":"Waterloo, ON","state_code":null,"country_code":"CAN","latitude":null,"longitude":null},{"name":"Agily Networks","category_code":"software","description":"Main office","address1":"3031 Tisch way","address2":"suite 700","zip_code":"95128","city":"San Jose","state_code":"CA","country_code":"USA","latitude":37.317799,"longitude":-121.947497},{"name":"Zootool","category_code":"web","description":"Headquarters","address1":"Wiesenbl\u00c3\u00a4ttchen 6","address2":"","zip_code":"68723","city":"Schwetzingen","state_code":null,"country_code":"DEU","latitude":null,"longitude":null},{"name":"ZingSale","category_code":"ecommerce","description":"","address1":"655 Fifth Street","address2":"#12","zip_code":"94107","city":"San Francisco","state_code":"CA","country_code":"USA","latitude":32.718834,"longitude":-117.163841},{"name":"Pinota","category_code":"mobile","description":"Internation","address1":"","address2":"","zip_code":"","city":"Vancouver","state_code":null,"country_code":"CAN","latitude":49.263588,"longitude":-123.138565},{"name":"PentaTonic Networks","category_code":"software","description":null,"address1":null,"address2":null,"zip_code":null,"city":null,"state_code":null,"country_code":null,"latitude":null,"longitude":null},{"name":"The Bid Zone","category_code":"web","description":null,"address1":null,"address2":null,"zip_code":null,"city":null,"state_code":null,"country_code":null,"latitude":null,"longitude":null},{"name":"Broadband Comparison Limited","category_code":"web","description":"","address1":"Carnaby House,","address2":"37 Marshall Street ,Soho,","zip_code":"W1F 7EZ","city":"London","state_code":null,"country_code":"GBR","latitude":null,"longitude":null},{"name":"Zeraphina","category_code":"web","description":"Zeraphina","address1":"40 The Mews","address2":"Kingram Place","zip_code":"D2","city":"Dublin","state_code":null,"country_code":"IRL","latitude":53.4445927,"longitude":-6.1345865},{"name":"Agentka","category_code":"web","description":"Prague Office","address1":"Pospisilova 5","address2":"","zip_code":"13000","city":"Prague","state_code":null,"country_code":"CZE","latitude":50.0809075,"longitude":14.4496124},{"name":"Zumbox","category_code":"web","description":"Headquarters","address1":"222 N. Sepulveda, Blvd. Suite 1514","address2":"","zip_code":"90245","city":"Los Angeles","state_code":"CA","country_code":"USA","latitude":null,"longitude":null},{"name":"Frontware International","category_code":"software","description":"Bangkok","address1":"Town-in-Town Latprao 94","address2":"Wanthglong","zip_code":"10310","city":"bangkok","state_code":null,"country_code":"THA","latitude":null,"longitude":null},{"name":"Statix TV","category_code":"web","description":"","address1":"735 Emerson Street","address2":"","zip_code":"94301","city":"Palo Alto","state_code":"CA","country_code":"USA","latitude":37.443,"longitude":-122.159291},{"name":"Magna Techa","category_code":"web","description":null,"address1":null,"address2":null,"zip_code":null,"city":null,"state_code":null,"country_code":null,"latitude":null,"longitude":null},{"name":"Discogs","category_code":"web","description":null,"address1":null,"address2":null,"zip_code":null,"city":null,"state_code":null,"country_code":null,"latitude":null,"longitude":null},{"name":"AirAppz","category_code":"web","description":"Ireland","address1":"Waterloo Lodge","address2":"Coolbawn","zip_code":"0000","city":"Nenagh, Co. Tipperary","state_code":null,"country_code":"IRL","latitude":null,"longitude":null},{"name":"givezooks!","category_code":"web","description":"","address1":"402 E. Gutierrez St.","address2":"","zip_code":"93101","city":"Santa Barbara","state_code":"CA","country_code":"USA","latitude":34.420316,"longitude":-119.688412},{"name":"Circle of Moms","category_code":"web","description":"HQ","address1":"118 2nd St Fl 2","address2":"","zip_code":"94105-3620","city":"San Francisco","state_code":"CA","country_code":"USA","latitude":37.7890183,"longitude":-122.3915063},{"name":"iFrat Wars","category_code":"software","description":null,"address1":null,"address2":null,"zip_code":null,"city":null,"state_code":null,"country_code":null,"latitude":null,"longitude":null},{"name":"CommitX","category_code":"web","description":null,"address1":null,"address2":null,"zip_code":null,"city":null,"state_code":null,"country_code":null,"latitude":null,"longitude":null},{"name":"Procedural","category_code":"software","description":"Zurich Office","address1":"Technoparkstrasse 1","address2":"","zip_code":"8005","city":"Zurich","state_code":null,"country_code":"CHE","latitude":null,"longitude":null},{"name":"Lambda Solutions","category_code":"web","description":"Head Office","address1":"321 Water Street","address2":"Suite 350","zip_code":"V6B 1B8","city":"Vancouver, BC","state_code":null,"country_code":"CAN","latitude":49.2843936,"longitude":-123.1092622},{"name":"eBillme","category_code":"ecommerce","description":"Head office","address1":"800 Westchester Ave.,","address2":"Suite N309","zip_code":"10573","city":"Rye Brook","state_code":"NY","country_code":"USA","latitude":null,"longitude":null},{"name":"Wink Bill","category_code":"software","description":null,"address1":null,"address2":null,"zip_code":null,"city":null,"state_code":null,"country_code":null,"latitude":null,"longitude":null},{"name":"Rudder","category_code":"web","description":"Rudder","address1":"3939 Essex Lane","address2":"Suite 190","zip_code":"77027","city":"Houston","state_code":"TX","country_code":"USA","latitude":29.739322,"longitude":-95.444747},{"name":"Why Hasn't He?","category_code":"games_video","description":"New York City","address1":"601 W. 57th Street","address2":"","zip_code":"10019","city":"New York City","state_code":"NY","country_code":"USA","latitude":40.7703479,"longitude":-73.9914834},{"name":"Bonzobox","category_code":"web","description":null,"address1":null,"address2":null,"zip_code":null,"city":null,"state_code":null,"country_code":null,"latitude":null,"longitude":null},{"name":"Did it Leak","category_code":"games_video","description":"Canada headquarters","address1":"598 Smithe","address2":"","zip_code":"","city":"Vancouver","state_code":null,"country_code":"CAN","latitude":49.27964,"longitude":-123.1204046},{"name":"Did it Leak","category_code":"games_video","description":"UK headquarters","address1":"","address2":"","zip_code":"","city":"Belfast","state_code":null,"country_code":"GBR","latitude":54.5972686,"longitude":-5.9301088},{"name":"Did it Leak","category_code":"games_video","description":"Brazil Correspondence","address1":"","address2":"","zip_code":"","city":"Salo Paulo","state_code":null,"country_code":"BRA","latitude":-23.5489433,"longitude":-46.6388182},{"name":"Slexy","category_code":"web","description":null,"address1":null,"address2":null,"zip_code":null,"city":null,"state_code":null,"country_code":null,"latitude":null,"longitude":null},{"name":"Koffeeware","category_code":"web","description":"","address1":"91b rue des Romains","address2":"","zip_code":"67000","city":"Strasbourg","state_code":null,"country_code":"FRA","latitude":48.590757,"longitude":7.7521091},{"name":"LiveVox","category_code":"web","description":"HQ","address1":"450 Sansome Street,","address2":"Suite 900","zip_code":"94111","city":"San Francisco","state_code":"CA","country_code":"USA","latitude":37.794643,"longitude":-122.401144},{"name":"LiveVox","category_code":"web","description":"","address1":"#36, \u201cCrown Point","address2":"2nd Floor Lavelle Road","zip_code":"560-001","city":"Bangalore","state_code":null,"country_code":"IND","latitude":null,"longitude":null},{"name":"Core Creative Group","category_code":"web","description":null,"address1":null,"address2":null,"zip_code":null,"city":null,"state_code":null,"country_code":null,"latitude":null,"longitude":null},{"name":"C2G","category_code":"web","description":"","address1":"","address2":"","zip_code":"22066","city":"Great Falls","state_code":"VA","country_code":"USA","latitude":39.012377,"longitude":-77.293817},{"name":"Top Blank","category_code":"web","description":null,"address1":null,"address2":null,"zip_code":null,"city":null,"state_code":null,"country_code":null,"latitude":null,"longitude":null},{"name":"The DailyDust","category_code":"web","description":"London Office","address1":"2nd Floor","address2":"145-157 St Johns Street","zip_code":"EC1V 4PY","city":"London","state_code":null,"country_code":"GBR","latitude":null,"longitude":null},{"name":"Ask500People","category_code":"web","description":null,"address1":null,"address2":null,"zip_code":null,"city":null,"state_code":null,"country_code":null,"latitude":null,"longitude":null},{"name":"ScaleMP","category_code":"software","description":"","address1":"20863 Stevens Creek Blvd.","address2":"Suite 275","zip_code":"95014","city":"Cupertino","state_code":"CA","country_code":"USA","latitude":37.3229727,"longitude":-122.0385792},{"name":"Veeda","category_code":"web","description":"Tel Aviv","address1":"","address2":"","zip_code":"","city":"Tel Aviv","state_code":null,"country_code":"ISR","latitude":32.0554,"longitude":34.7595},{"name":"Corkin","category_code":"ecommerce","description":"","address1":"19360 Rinaldi St.","address2":"Suite 186","zip_code":"91326","city":"Porter Ranch","state_code":"CA","country_code":"USA","latitude":34.2748055,"longitude":-118.5560776},{"name":"SparkBase","category_code":"software","description":"World Headquarters","address1":"3615 Superior Ave","address2":"Building 44, 4th Floor","zip_code":"44114","city":"Cleveland","state_code":"OH","country_code":"USA","latitude":41.513652,"longitude":-81.666101},{"name":"Blellow","category_code":"web","description":"Blellow","address1":"918 S Alamo","address2":"","zip_code":"78205","city":"San Antonio","state_code":"TX","country_code":"USA","latitude":29.414897,"longitude":-98.48972},{"name":"Rozdoum","category_code":"software","description":"Development Office","address1":"","address2":"","zip_code":"61001","city":"Kharkiv","state_code":null,"country_code":"UKR","latitude":null,"longitude":null},{"name":"Vidium","category_code":"games_video","description":"Office","address1":"Madrid 102 4\u00c2\u00baB","address2":"","zip_code":"28902","city":"Getafe","state_code":null,"country_code":"ESP","latitude":null,"longitude":null},{"name":"Unkasoft Advergaming","category_code":"mobile","description":"Madrid Office (marketing)","address1":"Nieremberg 8, Bajo A","address2":"","zip_code":"28002","city":"Madrid","state_code":null,"country_code":"ESP","latitude":40.4474363,"longitude":-3.6714915},{"name":"Unkasoft Advergaming","category_code":"mobile","description":"London Office (sales)","address1":"The Arc City 89","address2":"Worship Street","zip_code":"EC2A 2BF","city":"London","state_code":null,"country_code":"GBR","latitude":null,"longitude":null},{"name":"Unkasoft Advergaming","category_code":"mobile","description":"Salamanca Office","address1":"Parque Cientifico M2, camino gudino sn","address2":"","zip_code":"37185","city":"Villamayor","state_code":null,"country_code":"ESP","latitude":41.0016627,"longitude":-5.6937933},{"name":"Reality Jockey","category_code":"software","description":"","address1":"Reality Jockey","address2":"Hilkat 146","zip_code":"6847","city":"Bizau","state_code":null,"country_code":"AUT","latitude":null,"longitude":null},{"name":"CondoGala","category_code":"web","description":null,"address1":null,"address2":null,"zip_code":null,"city":null,"state_code":null,"country_code":null,"latitude":null,"longitude":null},{"name":"gooseGrade","category_code":"web","description":null,"address1":null,"address2":null,"zip_code":null,"city":null,"state_code":null,"country_code":null,"latitude":null,"longitude":null},{"name":"DAEDALUS - Data, Decisions and Language","category_code":"software","description":"Headquarters","address1":"Lopez de Hoyos 15","address2":"","zip_code":"28006","city":"Madrid","state_code":null,"country_code":"ESP","latitude":40.4372542,"longitude":-3.6866654},{"name":"DAEDALUS - Data, Decisions and Language","category_code":"software","description":"Technical Department","address1":"Edificio Vallausa II","address2":"Avenida de La Albufera 321","zip_code":"28031","city":"Madrid","state_code":null,"country_code":"ESP","latitude":null,"longitude":null},{"name":"StuVu","category_code":"games_video","description":null,"address1":null,"address2":null,"zip_code":null,"city":null,"state_code":null,"country_code":null,"latitude":null,"longitude":null},{"name":"HealthLok","category_code":"web","description":"HQ","address1":"","address2":"","zip_code":"68154","city":"Omaha","state_code":"NE","country_code":"USA","latitude":41.264624,"longitude":-96.1049958},{"name":"Gladinet","category_code":"software","description":"Gladinet","address1":"6750 North Andrews Ave","address2":"Suite 200","zip_code":"33309","city":"Fort Lauderdale","state_code":"FL","country_code":"USA","latitude":26.208864,"longitude":-80.140586},{"name":"Time America","category_code":"software","description":"Main Office","address1":"15990 N. Greenway-Hayden Loop","address2":"Suite D-500","zip_code":"85260","city":"Scottsdale","state_code":"AZ","country_code":"USA","latitude":33.631797,"longitude":-111.910107},{"name":"Localphone","category_code":"mobile","description":"Head Office","address1":"4 Paradise Street","address2":"","zip_code":"S1 2DF","city":"Sheffield","state_code":null,"country_code":"GBR","latitude":53.3839456,"longitude":-1.470047},{"name":"Localphone","category_code":"mobile","description":"US Office","address1":"7450 Dr Phillips Blvd","address2":"Suite 314","zip_code":"32819","city":"Orlando","state_code":"FL","country_code":"USA","latitude":null,"longitude":null},{"name":"MediaMall Technologies","category_code":"software","description":"World Headquarters","address1":"20 River Terrace","address2":"","zip_code":"10282","city":"New York","state_code":"NY","country_code":"USA","latitude":40.7166829,"longitude":-74.0163992},{"name":"Power-battery","category_code":"web","description":"","address1":"Unit 1,","address2":"1000 North Circular Road","zip_code":"Nw2 7JP","city":"London","state_code":null,"country_code":"GBR","latitude":null,"longitude":null},{"name":"Louisville Web Group","category_code":"ecommerce","description":"Corporate HQ","address1":"4965 US Highway 42","address2":"Suite 1000","zip_code":"40222","city":"Louisville","state_code":"KY","country_code":"USA","latitude":38.337337,"longitude":-85.474719},{"name":"Fortumo","category_code":"mobile","description":"Europe","address1":"\u00dclikooli 6A","address2":"","zip_code":"51003","city":"Tartu","state_code":null,"country_code":"EST","latitude":58.3754107,"longitude":26.7212208},{"name":"Fortumo","category_code":"mobile","description":"USA","address1":"625 2nd Street","address2":"","zip_code":"94107","city":"San Francisco","state_code":"CA","country_code":"USA","latitude":59.42145,"longitude":24.8021233},{"name":"Fortumo","category_code":"mobile","description":"Asia","address1":"Datun Road 222","address2":"","zip_code":"","city":"Beijing","state_code":null,"country_code":"CHN","latitude":null,"longitude":null},{"name":"ETFDesk","category_code":"web","description":null,"address1":null,"address2":null,"zip_code":null,"city":null,"state_code":null,"country_code":null,"latitude":null,"longitude":null},{"name":"Veebox","category_code":"web","description":"Los Angeles","address1":"2118 Wilshire Blvd #122","address2":"","zip_code":"90403","city":"Santa Monica","state_code":"CA","country_code":"USA","latitude":34.0324612,"longitude":-118.4818277},{"name":"sfeed","category_code":"ecommerce","description":"","address1":"","address2":"","zip_code":"","city":"Tallinn","state_code":null,"country_code":"EST","latitude":59.4388619,"longitude":24.7544715},{"name":"StarWind Software","category_code":"software","description":"","address1":"40 Mall Rd.","address2":"","zip_code":"01803","city":"Burlington","state_code":"MA","country_code":"USA","latitude":42.487232,"longitude":-71.204372},{"name":"Wine by the Bar","category_code":"software","description":"","address1":"313 Nantucket Drive","address2":"","zip_code":"27513","city":"Cary","state_code":"NC","country_code":"USA","latitude":35.820177,"longitude":-78.792841},{"name":"AutomatedGamer","category_code":"games_video","description":null,"address1":null,"address2":null,"zip_code":null,"city":null,"state_code":null,"country_code":null,"latitude":null,"longitude":null},{"name":"Blackletter","category_code":"web","description":null,"address1":null,"address2":null,"zip_code":null,"city":null,"state_code":null,"country_code":null,"latitude":null,"longitude":null},{"name":"htmlPlayground","category_code":"web","description":null,"address1":null,"address2":null,"zip_code":null,"city":null,"state_code":null,"country_code":null,"latitude":null,"longitude":null},{"name":"SocialFeet","category_code":"web","description":null,"address1":null,"address2":null,"zip_code":null,"city":null,"state_code":null,"country_code":null,"latitude":null,"longitude":null},{"name":"Replify","category_code":"software","description":"Headquarters","address1":"Wellington Buildings","address2":"2-4 Wellington Street","zip_code":"BT1 6HT","city":"Belfast","state_code":null,"country_code":"GBR","latitude":null,"longitude":null},{"name":"ThirdFrameStudios","category_code":"software","description":"HQ Kranj","address1":"Savska Loka 21c","address2":"","zip_code":"4000","city":"Kranj","state_code":null,"country_code":"SVN","latitude":46.2272708,"longitude":14.3611417},{"name":"ThirdFrameStudios","category_code":"software","description":"PE Ljubljana","address1":"Svet\u00c4\u008deva 14","address2":"","zip_code":"1000","city":"Ljubljana","state_code":null,"country_code":"SVN","latitude":null,"longitude":null},{"name":"ePhiphony Incorporated","category_code":"software","description":"Headquarters","address1":"4115 Durham Ct","address2":"","zip_code":"55122","city":"Eagan","state_code":"MN","country_code":"USA","latitude":44.8067033,"longitude":-93.2038492},{"name":"PBMCube","category_code":"games_video","description":"Phoenix HQ","address1":"8111 N 19th Ave","address2":"Suite 1042","zip_code":"85021","city":"Phoenix","state_code":"AZ","country_code":"USA","latitude":33.554943,"longitude":-112.098592},{"name":"fosiki","category_code":"software","description":null,"address1":null,"address2":null,"zip_code":null,"city":null,"state_code":null,"country_code":null,"latitude":null,"longitude":null},{"name":"GreenCupboards","category_code":"ecommerce","description":null,"address1":null,"address2":null,"zip_code":null,"city":null,"state_code":null,"country_code":null,"latitude":null,"longitude":null},{"name":"AmberBit","category_code":"software","description":"Bialystok AmberBit HQ","address1":"Hurtowa 4","address2":"","zip_code":"15-399","city":"Bia\u00c5\u201aystok","state_code":null,"country_code":"POL","latitude":53.1371088,"longitude":23.1540917},{"name":"Ashe Media Holdings","category_code":"web","description":"Headquarters","address1":"","address2":"","zip_code":"35476","city":"","state_code":"AL","country_code":"USA","latitude":33.884218,"longitude":-84.338429},{"name":"Dormtainment","category_code":"games_video","description":null,"address1":null,"address2":null,"zip_code":null,"city":null,"state_code":null,"country_code":null,"latitude":null,"longitude":null},{"name":"OE Design","category_code":"web","description":"Head Office","address1":"17\/79 West Burleigh Rd","address2":"","zip_code":"4220","city":"Burleigh Heads","state_code":null,"country_code":"AUS","latitude":-28.085945,"longitude":153.390945},{"name":"Adventure Areas","category_code":"web","description":null,"address1":null,"address2":null,"zip_code":null,"city":null,"state_code":null,"country_code":null,"latitude":null,"longitude":null},{"name":"LAGrapeVine","category_code":"web","description":"Location","address1":"2430 Ivory Way","address2":"","zip_code":"93036","city":"Oxnard","state_code":"CA","country_code":"USA","latitude":34.230406,"longitude":-119.186443},{"name":"Newser","category_code":"web","description":"","address1":"","address2":"","zip_code":"","city":"Chicago","state_code":"IL","country_code":"USA","latitude":41.879535,"longitude":-87.624333},{"name":"upad","category_code":"web","description":"London Office","address1":"104 Tennyson Road","address2":"","zip_code":"NW6 7SB","city":"London","state_code":null,"country_code":"GBR","latitude":51.5382894,"longitude":-0.2023958},{"name":"Swiffen","category_code":"games_video","description":"London Office","address1":"114, St. Martins Lane","address2":"","zip_code":"WC2N4BE","city":"London","state_code":null,"country_code":"GBR","latitude":51.5163382,"longitude":-0.0828173},{"name":"Antelink","category_code":"software","description":"Paris Headquarters","address1":"18 rue Yves Toudic","address2":"","zip_code":"75010","city":"Paris 10\u00c3\u00a8me","state_code":null,"country_code":"FRA","latitude":48.8524775,"longitude":2.3660117},{"name":"mobifriends","category_code":"web","description":"Barcelona Office","address1":"Albigesos 25-27 Bajos Ext.","address2":"","zip_code":"08024","city":"Barcelona","state_code":null,"country_code":"ESP","latitude":null,"longitude":null},{"name":"DoodleWall","category_code":"games_video","description":null,"address1":null,"address2":null,"zip_code":null,"city":null,"state_code":null,"country_code":null,"latitude":null,"longitude":null},{"name":"Nushio","category_code":"web","description":null,"address1":null,"address2":null,"zip_code":null,"city":null,"state_code":null,"country_code":null,"latitude":null,"longitude":null},{"name":"Websystems, inc","category_code":"software","description":"Headquarters","address1":"825 Lebourgneuf Blvd.","address2":"Office #212","zip_code":"G2J 0B9","city":"Quebec","state_code":null,"country_code":"CAN","latitude":46.8431654,"longitude":-71.290099},{"name":"eLayaway","category_code":"ecommerce","description":"eLayaway Headquarters","address1":"1625 Summit Lake Dr.","address2":"Suite 205","zip_code":"32317","city":"Tallahassee","state_code":"FL","country_code":"USA","latitude":30.484619,"longitude":-84.151101},{"name":"AlphaPoint Technology","category_code":"software","description":"Corporate Office","address1":"6371 Business Blvd.","address2":"Suite 200","zip_code":"34240","city":"Sarasota","state_code":"FL","country_code":"USA","latitude":27.3858,"longitude":-82.423},{"name":"Onthegig","category_code":"software","description":"Onthegig.com","address1":"","address2":"","zip_code":"19106","city":"Philadelphia","state_code":"PA","country_code":"USA","latitude":39.9493801,"longitude":-75.145782},{"name":"GroupieGuide","category_code":"web","description":"HQ","address1":"1008 Western Ave","address2":"Suite 400","zip_code":"98104","city":"Seattle","state_code":"WA","country_code":"USA","latitude":47.6042792,"longitude":-122.3374372},{"name":"Healogica","category_code":"web","description":"World Headquarters","address1":"47 West 76th Street","address2":"#4","zip_code":"10023","city":"New York","state_code":"NY","country_code":"USA","latitude":40.779959,"longitude":-73.976151},{"name":"Bvocalized","category_code":"mobile","description":"Head Office","address1":"605 Foster Ave","address2":"","zip_code":"V3J2L6","city":"Coquitlam","state_code":null,"country_code":"CAN","latitude":49.256745,"longitude":-122.8856305},{"name":"Chirbit","category_code":"web","description":"Chirbit US Headquarters","address1":"1356 Briarcliff Road NE","address2":"","zip_code":"30306","city":"Atlanta","state_code":"GA","country_code":"USA","latitude":33.791726,"longitude":-84.338044},{"name":"Oriental-Creations","category_code":"ecommerce","description":"Headquarters","address1":"Babur str., 10\/29","address2":"","zip_code":"100100","city":"Tashkent","state_code":null,"country_code":"UZB","latitude":null,"longitude":null},{"name":"Jingle Infotech Limited","category_code":"software","description":null,"address1":null,"address2":null,"zip_code":null,"city":null,"state_code":null,"country_code":null,"latitude":null,"longitude":null},{"name":"Varsity Outreach","category_code":"web","description":"Headquarters","address1":"3200 16th St. NW","address2":"Suite 616","zip_code":"20010","city":"Washington","state_code":"DC","country_code":"USA","latitude":38.93097,"longitude":-77.036972},{"name":"Fotomoto","category_code":"ecommerce","description":"Main Office","address1":"425 Brannan St.","address2":"","zip_code":"94107","city":"San Francisco","state_code":"CA","country_code":"USA","latitude":37.7795014,"longitude":-122.3948712},{"name":"VKernel Corporation","category_code":"software","description":"VKernel, a part of Dell","address1":"285 Summer Street","address2":"","zip_code":"02210","city":"Boston","state_code":"MA","country_code":"USA","latitude":42.3497366,"longitude":-71.0491901},{"name":"BUSINEO","category_code":"web","description":"Busineo","address1":"4 bis rue Marcel Miquel","address2":"","zip_code":"92130","city":"Issy Les Moulineaux","state_code":null,"country_code":"FRA","latitude":48.8208454,"longitude":2.2497852},{"name":"Attassa","category_code":"mobile","description":"Main Office","address1":"","address2":"","zip_code":"","city":"Kirkland","state_code":"WA","country_code":"USA","latitude":null,"longitude":null},{"name":"Cloud Hero","category_code":"software","description":null,"address1":null,"address2":null,"zip_code":null,"city":null,"state_code":null,"country_code":null,"latitude":null,"longitude":null},{"name":"Tipstar","category_code":"ecommerce","description":"Newcastle Offices","address1":"GIBC","address2":"Mulgrave Terrace","zip_code":"NE8 1AN","city":"Gateshead","state_code":null,"country_code":"GBR","latitude":null,"longitude":null},{"name":"CASAMUNDO","category_code":"ecommerce","description":"Headquarters","address1":"CASAMUNDO GmbH","address2":"Drehbahn 7","zip_code":"20354","city":"Hamburg","state_code":null,"country_code":"DEU","latitude":null,"longitude":null},{"name":"XHTML Fresh","category_code":"web","description":null,"address1":null,"address2":null,"zip_code":null,"city":null,"state_code":null,"country_code":null,"latitude":null,"longitude":null},{"name":"Carbonon Tech","category_code":"games_video","description":null,"address1":null,"address2":null,"zip_code":null,"city":null,"state_code":null,"country_code":null,"latitude":null,"longitude":null},{"name":"Fuelhaus Strategic Design","category_code":"web","description":null,"address1":null,"address2":null,"zip_code":null,"city":null,"state_code":null,"country_code":null,"latitude":null,"longitude":null},{"name":"Aria Networks","category_code":"software","description":"Corporate Headquarters","address1":"Bath Road","address2":"Avonbridge House","zip_code":"SN15 2BB","city":"Chippenham","state_code":null,"country_code":"GBR","latitude":51.4515283,"longitude":-2.1334555},{"name":"go2doc","category_code":"ecommerce","description":null,"address1":null,"address2":null,"zip_code":null,"city":null,"state_code":null,"country_code":null,"latitude":null,"longitude":null},{"name":"WiseBeetle","category_code":"web","description":null,"address1":null,"address2":null,"zip_code":null,"city":null,"state_code":null,"country_code":null,"latitude":null,"longitude":null},{"name":"Without Software","category_code":"software","description":"","address1":"70 Mill St.","address2":"Suite 909","zip_code":"M5A 4R1","city":"Toronto, ON","state_code":null,"country_code":"CAN","latitude":43.6509601,"longitude":-79.3588278},{"name":"LEADshare","category_code":"ecommerce","description":"","address1":"","address2":"","zip_code":"","city":"Paris","state_code":null,"country_code":"FRA","latitude":48.8566667,"longitude":2.3509871},{"name":"Pigmata Media","category_code":"software","description":"Pigmata HQ","address1":"1177 Chino Roces Ave. Suite 4A","address2":"","zip_code":"1203","city":"Makati","state_code":null,"country_code":"PHL","latitude":14.5359294,"longitude":121.0211311},{"name":"2 Minutes","category_code":"games_video","description":"","address1":"9 rue biscornet","address2":"","zip_code":"75012","city":"Paris","state_code":null,"country_code":"FRA","latitude":48.8502056,"longitude":2.3698033},{"name":"MetroLyrics","category_code":"web","description":"Headquarters","address1":"311 Water Street","address2":"Suite 500","zip_code":"V6B 1B8","city":"Vancouver, British Columbia","state_code":null,"country_code":"CAN","latitude":49.2608279,"longitude":-122.9145936},{"name":"GameGround","category_code":"games_video","description":"HQ","address1":"","address2":"","zip_code":"","city":"New York","state_code":"NY","country_code":"USA","latitude":40.756054,"longitude":-73.986951},{"name":"mTrip","category_code":"mobile","description":"Headquarter","address1":"420 Rue Guy","address2":"","zip_code":"H3J 1S6","city":"Montreal","state_code":null,"country_code":"CAN","latitude":45.503971,"longitude":-73.57236},{"name":"Gig Donkey","category_code":"web","description":null,"address1":null,"address2":null,"zip_code":null,"city":null,"state_code":null,"country_code":null,"latitude":null,"longitude":null},{"name":"Mudlark","category_code":"games_video","description":"Birmingham Studio","address1":"19 Fazeley Studios","address2":"Fazeley Rd","zip_code":"NG10 4LQ","city":"Birmingham","state_code":null,"country_code":"GBR","latitude":null,"longitude":null},{"name":"Engagement Systems","category_code":"software","description":"Engagement Systems","address1":"8300 NE Underground Dr.","address2":"Pillar 122","zip_code":"64161","city":"Kansas City","state_code":"MO","country_code":"USA","latitude":39.156427,"longitude":-94.483334},{"name":"Navtrak","category_code":"mobile","description":null,"address1":null,"address2":null,"zip_code":null,"city":null,"state_code":null,"country_code":null,"latitude":null,"longitude":null},{"name":"COOKPAD","category_code":"web","description":"Headquarter","address1":"5-12-7 Shirokanedai","address2":"Minato-ku","zip_code":"108-0071","city":"Tokyo","state_code":null,"country_code":"JPN","latitude":null,"longitude":null},{"name":"FLYPEANUT Studio","category_code":"web","description":"","address1":"","address2":"","zip_code":"444-4444","city":"Seoul","state_code":null,"country_code":"KOR","latitude":37.56862,"longitude":127.0263662},{"name":"GetItWithMe","category_code":"web","description":"London, GBR","address1":"","address2":"","zip_code":"N1 6NG","city":"London","state_code":null,"country_code":"GBR","latitude":51.5793731,"longitude":-0.1162418},{"name":"TVU Networks","category_code":"ecommerce","description":"Headquarters","address1":"1685 Plymouth St.","address2":"Suite 100","zip_code":"94043","city":"Mountain View","state_code":"CA","country_code":"USA","latitude":37.416349,"longitude":-122.085021},{"name":"TVU Networks","category_code":"ecommerce","description":"TVU Networks (China)","address1":"","address2":"","zip_code":"","city":"Shanghai","state_code":null,"country_code":"CHN","latitude":null,"longitude":null},{"name":"TVU Networks","category_code":"ecommerce","description":"New York Office","address1":"","address2":"","zip_code":"","city":"New York","state_code":"NY","country_code":"USA","latitude":null,"longitude":null},{"name":"Ahead","category_code":"software","description":null,"address1":null,"address2":null,"zip_code":null,"city":null,"state_code":null,"country_code":null,"latitude":null,"longitude":null},{"name":"Team Effect","category_code":"software","description":"Headquarters","address1":"49a Price Cr","address2":"Mt Wellington","zip_code":"3112","city":"Auckland","state_code":null,"country_code":"NZL","latitude":null,"longitude":null},{"name":"Grubby Games","category_code":"games_video","description":null,"address1":null,"address2":null,"zip_code":null,"city":null,"state_code":null,"country_code":null,"latitude":null,"longitude":null},{"name":"Video Game 911","category_code":"games_video","description":"","address1":"411 East Main Street","address2":"","zip_code":"07834","city":"Denville","state_code":"NJ","country_code":"USA","latitude":40.878656,"longitude":-74.4800198},{"name":"Mobile TeleSystems OJSC","category_code":"mobile","description":"","address1":"","address2":"","zip_code":"","city":"Moscow","state_code":null,"country_code":"RUS","latitude":55.755786,"longitude":37.617633},{"name":"Turbo Tech Live","category_code":"web","description":null,"address1":null,"address2":null,"zip_code":null,"city":null,"state_code":null,"country_code":null,"latitude":null,"longitude":null},{"name":"FleetMatics","category_code":"software","description":"Chicago","address1":"1600 East Golf Road","address2":"Suite 800","zip_code":"60008","city":"Rolling Meadows","state_code":"IL","country_code":"USA","latitude":null,"longitude":null},{"name":"FleetMatics","category_code":"software","description":"Charlotte","address1":"5501 Seventy Seven Center Drive","address2":"Suite 300","zip_code":"28217","city":"Charlotte","state_code":"NC","country_code":"USA","latitude":null,"longitude":null},{"name":"FleetMatics","category_code":"software","description":"Boston","address1":"70 Walnut Street","address2":"2nd Floor","zip_code":"02481","city":"Wellesley Hills","state_code":"MA","country_code":"USA","latitude":null,"longitude":null},{"name":"FleetMatics","category_code":"software","description":"Clearwater","address1":"1255 Cleveland Street","address2":"3rd Floor","zip_code":"33755","city":"Clearwater","state_code":"FL","country_code":"USA","latitude":null,"longitude":null},{"name":"FleetMatics","category_code":"software","description":"Phoenix","address1":"9180 South Kyrene Road","address2":"","zip_code":"85284","city":"Tempe","state_code":"AZ","country_code":"USA","latitude":null,"longitude":null},{"name":"FleetMatics","category_code":"software","description":"Dublin","address1":"178 Templeogue Road","address2":"","zip_code":"Dublin 6W","city":"Templeogue","state_code":null,"country_code":"IRL","latitude":null,"longitude":null},{"name":"FleetMatics","category_code":"software","description":"London","address1":"Unit 4 BeaconTree Plaza","address2":"Gillette Way","zip_code":"RG2 0BS","city":"Reading","state_code":null,"country_code":"GBR","latitude":null,"longitude":null},{"name":"Concord Supplies","category_code":"ecommerce","description":"Headquarters","address1":"959 AEC Drive","address2":"","zip_code":"60191","city":"Wood Dale","state_code":"IL","country_code":"USA","latitude":41.9808335,"longitude":-87.9825732},{"name":"FacebookLicious!","category_code":"games_video","description":"Facebooklicious Office.","address1":"42 Paisley Street,","address2":"","zip_code":"19701","city":"Bear","state_code":"DE","country_code":"USA","latitude":39.612223,"longitude":-75.696706},{"name":"Wondershare Software","category_code":"software","description":"Headquarter","address1":"3\/F, Fucheng Hi-Tech Building, Gaoxin South Road 1, Nanshan District,","address2":"","zip_code":"518057","city":"Shenzhen","state_code":null,"country_code":"CHN","latitude":null,"longitude":null},{"name":"Venturi Wireless","category_code":"mobile","description":"US Office","address1":"1320 Chesapeake Terrace","address2":"","zip_code":"94085","city":"Sunnyvale","state_code":"CA","country_code":"USA","latitude":37.4099985,"longitude":-122.0018725},{"name":"Embarcadero Technologies","category_code":"software","description":"Corporate Headquarters","address1":"100 California Street","address2":"12th Floor","zip_code":"94111","city":"San Francisco","state_code":"CA","country_code":"USA","latitude":37.793949,"longitude":-122.398062},{"name":"Bump Technologies","category_code":"mobile","description":"HQ","address1":"","address2":"","zip_code":"94041","city":"Mountain View","state_code":"CA","country_code":"USA","latitude":null,"longitude":null},{"name":"Fotothing","category_code":"web","description":"ADVFN plc, Owners","address1":"26 Throgmorton Street","address2":"","zip_code":"EC2 2AN","city":"London","state_code":null,"country_code":"GBR","latitude":null,"longitude":null},{"name":"My TV Shows","category_code":"games_video","description":"Lisbon Office","address1":"Rua Ros\u00c3\u00a1lia de Castro","address2":"","zip_code":"1700","city":"Lisbon","state_code":null,"country_code":"PRT","latitude":38.7523672,"longitude":-9.1462209}]