[{"name":"Wetpaint","description":"","address1":"710 - 2nd Avenue","address2":"Suite 1100","zip_code":"98104","city":"Seattle","state_code":"WA","country_code":"USA","latitude":47.603122,"longitude":-122.333253,"geopoint":{"type":"Point","coordinates":[-122.333253,47.603122]}},{"name":"Wetpaint","description":"","address1":"270 Lafayette Street","address2":"Suite 505","zip_code":"10012","city":"New York","state_code":"NY","country_code":"USA","latitude":40.7237306,"longitude":-73.9964312,"geopoint":{"type":"Point","coordinates":[-73.9964312,40.7237306]}},{"name":"Digg","description":null,"address1":"135 Mississippi St","address2":"","zip_code":"94107","city":"San Francisco","state_code":"CA","country_code":"USA","latitude":37.764726,"longitude":-122.394523,"geopoint":{"type":"Point","coordinates":[-122.394523,37.764726]}},{"name":"Joost","description":"","address1":"100 5th Ave Fl 6","address2":"","zip_code":"10011-6903","city":"New York","state_code":"NY","country_code":"USA","latitude":40.7464969,"longitude":-74.0094471,"geopoint":{"type":"Point","coordinates":[-74.0094471,40.7464969]}},{"name":"Powerset","description":null,"address1":"475 Brannan St","address2":"","zip_code":"94107","city":"San Francisco","state_code":"CA","country_code":"USA","latitude":37.778613,"longitude":-122.395289,"geopoint":{"type":"Point","coordinates":[-122.395289,37.778613]}},{"name":"TheFind","description":"","address1":"310 Villa Street","address2":"","zip_code":"94041","city":"Mountain View","state_code":"CA","country_code":"USA","latitude":37.391502,"longitude":-122.073463,"geopoint":{"type":"Point","coordinates":[-122.073463,37.391502]}},{"name":"Kaboodle","description":"","address1":"640 W. California Ave.","address2":"Suite 220","zip_code":"94041","city":"Sunnyvale","state_code":"CA","country_code":"USA","latitude":37.382162,"longitude":-122.036301,"geopoint":{"type":"Point","coordinates":[-122.036301,37.382162]}},{"name":"Redfin","description":"","address1":"2025 1st Ave","address2":"Suite 600","zip_code":"98121","city":"Seattle","state_code":"WA","country_code":"USA","latitude":47.603122,"longitude":-122.333253,"geopoint":{"type":"Point","coordinates":[-122.333253,47.603122]}},{"name":"TechnologyGuide","description":null,"address1":"7420 Jager Ct","address2":"","zip_code":"45230","city":"Cincinnati","state_code":"OH","country_code":"USA","latitude":39.06685,"longitude":-84.351532,"geopoint":{"type":"Point","coordinates":[-84.351532,39.06685]}},{"name":"Techmeme","description":"","address1":"","address2":"","zip_code":"94107","city":"San Francisco","state_code":"CA","country_code":"USA","latitude":37.7618242,"longitude":-122.3985871,"geopoint":{"type":"Point","coordinates":[-122.3985871,37.7618242]}},{"name":"Tagged","description":"San Francisco, USA","address1":"P.O. Box 193152","address2":"","zip_code":"94119-3152","city":"San Francisco","state_code":"CA","country_code":"USA","latitude":37.7753,"longitude":-122.4186,"geopoint":{"type":"Point","coordinates":[-122.4186,37.7753]}},{"name":"Jaxtr","description":null,"address1":"855 Oak Grove Ave.","address2":"Suite 100","zip_code":"94025","city":"Menlo Park","state_code":"CA","country_code":"USA","latitude":37.451026,"longitude":-122.18676,"geopoint":{"type":"Point","coordinates":[-122.18676,37.451026]}},{"name":"WallStrip","description":null,"address1":null,"address2":null,"zip_code":null,"city":null,"state_code":null,"country_code":"USA","latitude":37.09024,"longitude":-95.712891,"geopoint":{"type":"Point","coordinates":[-95.712891,37.09024]}},{"name":"The Walt Disney Company","description":null,"address1":"500 S. Buena Vista St.","address2":"","zip_code":"91521","city":"Burbank","state_code":"CA","country_code":"USA","latitude":34.156802,"longitude":-118.324987,"geopoint":{"type":"Point","coordinates":[-118.324987,34.156802]}},{"name":"Revver","description":null,"address1":"","address2":"","zip_code":"","city":"Los Angeles","state_code":"CA","country_code":"USA","latitude":34.052187,"longitude":-118.243425,"geopoint":{"type":"Point","coordinates":[-118.243425,34.052187]}},{"name":"Splashup","description":null,"address1":"","address2":"","zip_code":"","city":"","state_code":null,"country_code":"USA","latitude":37.09024,"longitude":-95.712891,"geopoint":{"type":"Point","coordinates":[-95.712891,37.09024]}},{"name":"Techstars","description":"HQ","address1":"","address2":"","zip_code":"","city":"Boulder","state_code":"CO","country_code":"USA","latitude":40.010492,"longitude":-105.276843,"geopoint":{"type":"Point","coordinates":[-105.276843,40.010492]}},{"name":"Goowy","description":null,"address1":"121 Broadway","address2":"Suite 233","zip_code":"92101","city":"San Diego","state_code":"CA","country_code":"USA","latitude":32.71537,"longitude":-117.163353,"geopoint":{"type":"Point","coordinates":[-117.163353,32.71537]}},{"name":"Mevio","description":"","address1":"577 2nd St Suite 203","address2":"","zip_code":"94107","city":"San Francisco","state_code":"CA","country_code":"USA","latitude":37.782263,"longitude":-122.392142,"geopoint":{"type":"Point","coordinates":[-122.392142,37.782263]}},{"name":"Lastminute","description":"Corporate Headquarters","address1":"39 Victoria St","address2":"","zip_code":"SW1H 0EA","city":"London","state_code":null,"country_code":"GBR","latitude":37.09024,"longitude":-95.712891,"geopoint":{"type":"Point","coordinates":[-95.712891,37.09024]}},{"name":"MocoSpace","description":"","address1":"","address2":"","zip_code":"02111","city":"Boston","state_code":"MA","country_code":"USA","latitude":42.350274,"longitude":-71.058768,"geopoint":{"type":"Point","coordinates":[-71.058768,42.350274]}},{"name":"Quattro Wireless","description":null,"address1":"260 Charles St","address2":"","zip_code":"02453","city":"Waltham","state_code":"MA","country_code":"USA","latitude":42.3729,"longitude":-71.248472,"geopoint":{"type":"Point","coordinates":[-71.248472,42.3729]}},{"name":"Wonga","description":"","address1":"88 Crawford Street","address2":"","zip_code":"W1H 2EJ","city":"London","state_code":null,"country_code":"GBR","latitude":51.5192042,"longitude":-0.1626103,"geopoint":{"type":"Point","coordinates":[-0.1626103,51.5192042]}},{"name":"CircleUp","description":"","address1":"","address2":"","zip_code":"","city":"San Francisco","state_code":"CA","country_code":"USA","latitude":null,"longitude":null,"geopoint":null},{"name":"Yugma","description":"YSL Holdings (HQ)","address1":"PO Box 46573","address2":"","zip_code":"55344","city":"Eden Prairie","state_code":"MN","country_code":"USA","latitude":44.865243,"longitude":-93.4094629,"geopoint":{"type":"Point","coordinates":[-93.4094629,44.865243]}},{"name":"Attributor","description":"","address1":"119 South B Street","address2":"Suite A","zip_code":"94401","city":"San Mateo","state_code":"CA","country_code":"USA","latitude":37.453687,"longitude":-122.228595,"geopoint":{"type":"Point","coordinates":[-122.228595,37.453687]}},{"name":"TripIt","description":"","address1":"500 Treat Avenue, Suite 100","address2":"","zip_code":"94110","city":"San Francisco","state_code":"CA","country_code":"USA","latitude":37.764169,"longitude":-122.402021,"geopoint":{"type":"Point","coordinates":[-122.402021,37.764169]}},{"name":"Ceedo Technologies","description":"HQ","address1":"Hamelacha 21","address2":"Park Afek","zip_code":"11695","city":"Rosh Ha'ayin","state_code":null,"country_code":"ISR","latitude":null,"longitude":null,"geopoint":null},{"name":"IPartee","description":null,"address1":"","address2":"","zip_code":"","city":"","state_code":null,"country_code":"CAN","latitude":56.130366,"longitude":-106.346771,"geopoint":{"type":"Point","coordinates":[-106.346771,56.130366]}},{"name":"app2you","description":null,"address1":null,"address2":null,"zip_code":"92037","city":"La Jolla","state_code":"CA","country_code":"USA","latitude":32.847521,"longitude":-117.274609,"geopoint":{"type":"Point","coordinates":[-117.274609,32.847521]}},{"name":"GamerDNA","description":null,"address1":"","address2":"","zip_code":"","city":"Cambridge","state_code":"MA","country_code":"USA","latitude":42.375392,"longitude":-71.118487,"geopoint":{"type":"Point","coordinates":[-71.118487,42.375392]}},{"name":"Pakt","description":null,"address1":null,"address2":null,"zip_code":"90293","city":null,"state_code":"CA","country_code":"USA","latitude":33.945553,"longitude":-118.441219,"geopoint":{"type":"Point","coordinates":[-118.441219,33.945553]}},{"name":"mEgo","description":null,"address1":"1278 South Beverly Glen","address2":null,"zip_code":"90024","city":"Los Angeles","state_code":"CA","country_code":"USA","latitude":34.064491,"longitude":-118.42749,"geopoint":{"type":"Point","coordinates":[-118.42749,34.064491]}},{"name":"CafeScribe","description":null,"address1":"5320 S. 900 E. Suite 250","address2":null,"zip_code":"84117","city":"Salt Lake City","state_code":"UT","country_code":"AFG","latitude":null,"longitude":null,"geopoint":null},{"name":"BrightQube","description":null,"address1":null,"address2":null,"zip_code":"92009","city":"Carlsbad","state_code":"CA","country_code":"USA","latitude":33.09568,"longitude":-117.244034,"geopoint":{"type":"Point","coordinates":[-117.244034,33.09568]}},{"name":"GroupSwim","description":null,"address1":"665 3rd Street","address2":"Suite 508","zip_code":"94107","city":"San Francisco","state_code":"CA","country_code":"USA","latitude":37.779558,"longitude":-122.393041,"geopoint":{"type":"Point","coordinates":[-122.393041,37.779558]}},{"name":"Notemarks","description":null,"address1":"2400 Boston Street, Ste. 201","address2":null,"zip_code":"21224","city":"Baltimore","state_code":"MD","country_code":"USA","latitude":39.281734,"longitude":-76.581864,"geopoint":{"type":"Point","coordinates":[-76.581864,39.281734]}},{"name":"Kaltura","description":"","address1":"41 East 11th Street, 11th Floor","address2":"","zip_code":"10003","city":"New York","state_code":"NY","country_code":"USA","latitude":null,"longitude":null,"geopoint":null},{"name":"mPortico","description":null,"address1":"16 Haminhara Street","address2":null,"zip_code":"46586","city":"Herzliya","state_code":null,"country_code":"ISR","latitude":null,"longitude":null,"geopoint":null},{"name":"Mobivox","description":null,"address1":"651 Notre-Dame West Suite 550","address2":null,"zip_code":null,"city":"Montreal","state_code":null,"country_code":"CAN","latitude":45.500277,"longitude":-73.560084,"geopoint":{"type":"Point","coordinates":[-73.560084,45.500277]}},{"name":"FriendFeed","description":"","address1":"333 W. Evelyn Ave","address2":"","zip_code":"94041","city":"Mountain View","state_code":"CA","country_code":"USA","latitude":37.39248,"longitude":-122.072612,"geopoint":{"type":"Point","coordinates":[-122.072612,37.39248]}},{"name":"RecipeMatcher","description":null,"address1":"","address2":null,"zip_code":"92122","city":"","state_code":"CA","country_code":"USA","latitude":32.856744,"longitude":-117.20717,"geopoint":{"type":"Point","coordinates":[-117.20717,32.856744]}},{"name":"Whiskey Media","description":"HQ","address1":"921 Front St.","address2":"Suite #100","zip_code":"94111","city":"San Francisco","state_code":"CA","country_code":"USA","latitude":37.856331,"longitude":-122.495222,"geopoint":{"type":"Point","coordinates":[-122.495222,37.856331]}},{"name":"CondoDomain","description":"CondoDomain HQ","address1":"110 Greene Street","address2":"Suite 1109","zip_code":"10012","city":"New York","state_code":"NY","country_code":"USA","latitude":42.349164,"longitude":-71.049346,"geopoint":{"type":"Point","coordinates":[-71.049346,42.349164]}},{"name":"CondoDomain","description":"Boston Office","address1":"319 A Street","address2":"5th Floor","zip_code":"02210","city":"Boston","state_code":"MA","country_code":"USA","latitude":null,"longitude":null,"geopoint":null},{"name":"Shopatron","description":"San Luis Obispo","address1":"825 Buckley Road, Suite 200","address2":"","zip_code":"93403","city":"San Luis Obispo","state_code":"CA","country_code":"USA","latitude":37.09024,"longitude":-95.712891,"geopoint":{"type":"Point","coordinates":[-95.712891,37.09024]}},{"name":"All-Scrap","description":null,"address1":null,"address2":null,"zip_code":null,"city":null,"state_code":null,"country_code":null,"latitude":null,"longitude":null,"geopoint":null},{"name":"FeedMorf","description":null,"address1":"Higher Burton Cottages","address2":null,"zip_code":"DT2 7SA","city":"Higher Burton","state_code":null,"country_code":"GBR","latitude":null,"longitude":null,"geopoint":null},{"name":"Gydget","description":null,"address1":"1 Front Street","address2":null,"zip_code":"94111","city":"San Francisco","state_code":"CA","country_code":"USA","latitude":37.791733,"longitude":-122.398398,"geopoint":{"type":"Point","coordinates":[-122.398398,37.791733]}},{"name":"SezWho","description":null,"address1":"1000 Fremont Avenue, #230","address2":null,"zip_code":"94024","city":"Los Altos","state_code":"CA","country_code":"USA","latitude":37.351894,"longitude":-122.085807,"geopoint":{"type":"Point","coordinates":[-122.085807,37.351894]}},{"name":"BrainKeeper","description":null,"address1":"5815 Summerlake Way","address2":null,"zip_code":"20120","city":"Centreville","state_code":"VA","country_code":"USA","latitude":38.84919,"longitude":-77.4582,"geopoint":{"type":"Point","coordinates":[-77.4582,38.84919]}},{"name":"Zilok","description":null,"address1":"","address2":"","zip_code":"","city":"Brussels","state_code":null,"country_code":"BEL","latitude":50.837051,"longitude":4.367612,"geopoint":{"type":"Point","coordinates":[4.367612,50.837051]}},{"name":"GotCast","description":null,"address1":"200 S Barrington Ave, # 491141","address2":null,"zip_code":"90049","city":"Los Angleles","state_code":"CA","country_code":"USA","latitude":34.064139,"longitude":-118.468672,"geopoint":{"type":"Point","coordinates":[-118.468672,34.064139]}},{"name":"MerchantCircle","description":"","address1":"800 W. El Camino Real","address2":"Suite 330","zip_code":"94040","city":"Mountain View","state_code":"CA","country_code":"USA","latitude":null,"longitude":null,"geopoint":null},{"name":"RealSelf","description":null,"address1":null,"address2":null,"zip_code":null,"city":"Seattle","state_code":"WA","country_code":"USA","latitude":47.620716,"longitude":-122.347533,"geopoint":{"type":"Point","coordinates":[-122.347533,47.620716]}},{"name":"OurStage","description":"","address1":"321 Billerica Road","address2":"","zip_code":"01824","city":"Chelmsford","state_code":"MA","country_code":"USA","latitude":42.591704,"longitude":-71.319348,"geopoint":{"type":"Point","coordinates":[-71.319348,42.591704]}},{"name":"Zoji","description":null,"address1":null,"address2":null,"zip_code":null,"city":"Seattle","state_code":"WA","country_code":"USA","latitude":47.620716,"longitude":-122.347533,"geopoint":{"type":"Point","coordinates":[-122.347533,47.620716]}},{"name":"Hark","description":"Hark Headquarters","address1":"1620 Broadway","address2":"Suite 209","zip_code":"98122","city":"Seattle","state_code":"WA","country_code":"USA","latitude":null,"longitude":null,"geopoint":null},{"name":"Splunk","description":"Headquarters","address1":"250 Brannan St.","address2":"","zip_code":"94107","city":"San Francisco","state_code":"CA","country_code":"USA","latitude":37.78274,"longitude":-122.390945,"geopoint":{"type":"Point","coordinates":[-122.390945,37.78274]}},{"name":"Localeze","description":"Headquarters","address1":"8010 Towers Center Drive Fifth Floor","address2":"","zip_code":"22182","city":"Vienna","state_code":"VA","country_code":"USA","latitude":41.878643,"longitude":-87.636706,"geopoint":{"type":"Point","coordinates":[-87.636706,41.878643]}},{"name":"Dapper","description":"Corporate Headquarters","address1":"290 King Street","address2":"","zip_code":"94107","city":"San Francisco","state_code":"CA","country_code":"USA","latitude":37.7766184,"longitude":-122.3938931,"geopoint":{"type":"Point","coordinates":[-122.3938931,37.7766184]}},{"name":"Squidoo","description":"","address1":"","address2":"","zip_code":"10706","city":"Hastings-on-Hudson","state_code":"NY","country_code":"USA","latitude":41.035749,"longitude":-73.865287,"geopoint":{"type":"Point","coordinates":[-73.865287,41.035749]}},{"name":"Picktastic","description":null,"address1":null,"address2":null,"zip_code":"98052","city":null,"state_code":null,"country_code":"USA","latitude":47.680496,"longitude":-122.120938,"geopoint":{"type":"Point","coordinates":[-122.120938,47.680496]}},{"name":"Mobissimo","description":null,"address1":"631 Howard St. suite 520","address2":"","zip_code":"94105","city":"San Francisco","state_code":"CA","country_code":"USA","latitude":37.78624,"longitude":-122.39897,"geopoint":{"type":"Point","coordinates":[-122.39897,37.78624]}},{"name":"Driftr","description":null,"address1":"","address2":"","zip_code":"90291","city":"Venice","state_code":"CA","country_code":"USA","latitude":33.994162,"longitude":-118.46371,"geopoint":{"type":"Point","coordinates":[-118.46371,33.994162]}},{"name":"Workface","description":"World Headquarters","address1":"1500 Jackson St NE","address2":"Suite 294","zip_code":"55413","city":"Minneapolis","state_code":"MN","country_code":"USA","latitude":null,"longitude":null,"geopoint":null},{"name":"Enforta","description":null,"address1":"Mishina Street 56; Building 2, 6th Floor","address2":null,"zip_code":"127083","city":"Moscow","state_code":null,"country_code":"RUS","latitude":null,"longitude":null,"geopoint":null},{"name":"Badoo","description":"London Office","address1":"","address2":"","zip_code":"","city":"London","state_code":null,"country_code":"GBR","latitude":null,"longitude":null,"geopoint":null},{"name":"Badoo","description":"San Fransisco Office","address1":"","address2":"","zip_code":"","city":"San Fransisco","state_code":"CA","country_code":"USA","latitude":null,"longitude":null,"geopoint":null},{"name":"Badoo","description":"Moscow Office","address1":"","address2":"","zip_code":"","city":"Moscow","state_code":null,"country_code":"RUS","latitude":null,"longitude":null,"geopoint":null},{"name":"UnLtdWorld","description":"","address1":"123 Whitecross Street","address2":"","zip_code":"EC1Y 8JJ","city":"London","state_code":null,"country_code":"GBR","latitude":51.522413,"longitude":-0.0926903,"geopoint":{"type":"Point","coordinates":[-0.0926903,51.522413]}},{"name":"HouseFront","description":null,"address1":"2150 W 29th Ave Suite 200","address2":null,"zip_code":"80211","city":"Denver","state_code":"CO","country_code":"USA","latitude":39.758126,"longitude":-105.01277,"geopoint":{"type":"Point","coordinates":[-105.01277,39.758126]}},{"name":"WorldTV","description":"Irish Office","address1":"","address2":"","zip_code":"","city":"Limerick","state_code":null,"country_code":"IRL","latitude":52.6638571,"longitude":-8.6267726,"geopoint":{"type":"Point","coordinates":[-8.6267726,52.6638571]}},{"name":"WorldTV","description":"London Office","address1":"","address2":"","zip_code":"","city":"London","state_code":null,"country_code":"GBR","latitude":51.5001524,"longitude":-0.1262362,"geopoint":{"type":"Point","coordinates":[-0.1262362,51.5001524]}},{"name":"Taptu","description":"","address1":"140 Science Park","address2":"Milton Road","zip_code":"CB4 0GF","city":"Cambridge","state_code":null,"country_code":"GBR","latitude":null,"longitude":null,"geopoint":null},{"name":"Taptu","description":"","address1":"5350 South Rosyln Street Suite 210","address2":"Greenwood Village","zip_code":"80111","city":"Denver","state_code":"CO","country_code":"USA","latitude":null,"longitude":null,"geopoint":null},{"name":"FutonMedia","description":null,"address1":"","address2":"","zip_code":"96817","city":"Honolulu","state_code":"HI","country_code":"USA","latitude":21.338849,"longitude":-157.837351,"geopoint":{"type":"Point","coordinates":[-157.837351,21.338849]}},{"name":"Mergelab","description":null,"address1":"93 S Jackson St #59318","address2":"","zip_code":"98104-2818","city":"Seattle","state_code":"WA","country_code":"USA","latitude":47.599136,"longitude":-122.334393,"geopoint":{"type":"Point","coordinates":[-122.334393,47.599136]}},{"name":"mobileStorm","description":"Corporate Office","address1":"16530 Ventura Blvd","address2":"Suite 502","zip_code":"91436","city":"Encino","state_code":"CA","country_code":"USA","latitude":34.09846,"longitude":-118.332885,"geopoint":{"type":"Point","coordinates":[-118.332885,34.09846]}},{"name":"TalentSpring","description":"","address1":"2033 Sixth Avenue","address2":"Suite 331","zip_code":"98121","city":"Seattle","state_code":"WA","country_code":"USA","latitude":47.680496,"longitude":-122.120938,"geopoint":{"type":"Point","coordinates":[-122.120938,47.680496]}},{"name":"Metromole","description":null,"address1":"2 Gold Street #710","address2":"","zip_code":"10038","city":"New York","state_code":"NY","country_code":"USA","latitude":40.707253,"longitude":-74.007413,"geopoint":{"type":"Point","coordinates":[-74.007413,40.707253]}},{"name":"Mobiance","description":null,"address1":"BC-3, Atrium Business Center,","address2":"Coles Road, Frazer Town,","zip_code":"560005","city":"Bangalore","state_code":null,"country_code":"IND","latitude":null,"longitude":null,"geopoint":null},{"name":"Brownstoner Media","description":null,"address1":"408 Grand Avenue","address2":"","zip_code":"11238","city":"Brooklyn","state_code":"NY","country_code":"USA","latitude":40.684257,"longitude":-73.961981,"geopoint":{"type":"Point","coordinates":[-73.961981,40.684257]}},{"name":"China-8","description":null,"address1":"Room 508, Mui Wo Building","address2":"Mui Wo","zip_code":"HK","city":"Lantau Island","state_code":null,"country_code":"HKG","latitude":22.266141,"longitude":113.997909,"geopoint":{"type":"Point","coordinates":[113.997909,22.266141]}},{"name":"LittleEngine","description":null,"address1":"3017 Douglas Blvd.","address2":"Suite 300","zip_code":"95661","city":"Roseville","state_code":"CA","country_code":"USA","latitude":38.744194,"longitude":-121.234636,"geopoint":{"type":"Point","coordinates":[-121.234636,38.744194]}},{"name":"ManageMyAdvertising","description":null,"address1":"","address2":"","zip_code":"94111","city":"San Francisco","state_code":"CA","country_code":"USA","latitude":37.798853,"longitude":-122.398599,"geopoint":{"type":"Point","coordinates":[-122.398599,37.798853]}},{"name":"GumGum","description":"GumGum","address1":"1207 4th Street","address2":"Suite 400A","zip_code":"90401","city":"Santa Monica","state_code":"CA","country_code":"USA","latitude":34.052187,"longitude":-118.243425,"geopoint":{"type":"Point","coordinates":[-118.243425,34.052187]}},{"name":"ShareMethods","description":null,"address1":"","address2":"","zip_code":"07079","city":"","state_code":"NJ","country_code":"USA","latitude":40.748895,"longitude":-74.258602,"geopoint":{"type":"Point","coordinates":[-74.258602,40.748895]}},{"name":"Fortify Software","description":"Corporate Headquarters","address1":"2215 Bridgepointe Parkway","address2":"Suite 400","zip_code":"94404","city":"San Mateo","state_code":"CA","country_code":"USA","latitude":37.560781,"longitude":-122.284114,"geopoint":{"type":"Point","coordinates":[-122.284114,37.560781]}},{"name":"Planbus","description":null,"address1":"","address2":"","zip_code":"510180","city":"Bei Jing","state_code":null,"country_code":"CHN","latitude":null,"longitude":null,"geopoint":null},{"name":"fotopedia","description":"Paris","address1":"","address2":"","zip_code":"","city":"Paris","state_code":null,"country_code":"FRA","latitude":48.856667,"longitude":2.350987,"geopoint":{"type":"Point","coordinates":[2.350987,48.856667]}},{"name":"fotopedia","description":"San Francisco","address1":"","address2":"","zip_code":"94133","city":"San Francisco","state_code":"CA","country_code":"USA","latitude":null,"longitude":null,"geopoint":null},{"name":"Ownersite Technologies","description":"Headquarters","address1":"885 Woodstock Road","address2":"Suite 430-187","zip_code":"30075-2274","city":"Roswell","state_code":"GA","country_code":"USA","latitude":34.016362,"longitude":-84.322687,"geopoint":{"type":"Point","coordinates":[-84.322687,34.016362]}},{"name":"Group2call","description":null,"address1":"","address2":"","zip_code":"","city":"","state_code":"FL","country_code":"USA","latitude":null,"longitude":null,"geopoint":null},{"name":"GenieTown","description":null,"address1":"430 Sherman Ave. Ste. 100","address2":"","zip_code":"94306","city":"Palo Alto","state_code":"CA","country_code":"USA","latitude":37.425773,"longitude":-122.144271,"geopoint":{"type":"Point","coordinates":[-122.144271,37.425773]}},{"name":"Unype","description":null,"address1":"2350 Broadway Suite 639A","address2":"","zip_code":"10024","city":"New York","state_code":"NY","country_code":"USA","latitude":40.787783,"longitude":-73.976413,"geopoint":{"type":"Point","coordinates":[-73.976413,40.787783]}},{"name":"World Reviewer","description":null,"address1":"129 Canalot Studios","address2":"222 Kensal Road","zip_code":"W8 5QH","city":"London","state_code":null,"country_code":"GBR","latitude":null,"longitude":null,"geopoint":null},{"name":"EVO Media Group","description":null,"address1":"2101 4th Ave","address2":"","zip_code":"98121","city":"Seattle","state_code":"WA","country_code":"USA","latitude":47.613896,"longitude":-122.3413,"geopoint":{"type":"Point","coordinates":[-122.3413,47.613896]}},{"name":"Popularo","description":null,"address1":"","address2":"","zip_code":"","city":"Philadelphia","state_code":"PA","country_code":"USA","latitude":39.951639,"longitude":-75.163808,"geopoint":{"type":"Point","coordinates":[-75.163808,39.951639]}},{"name":"Animax Entertainment","description":null,"address1":"6627 Valjean Avenue","address2":"","zip_code":"91406","city":"Van Nuys","state_code":"CA","country_code":"USA","latitude":34.19099,"longitude":-118.486428,"geopoint":{"type":"Point","coordinates":[-118.486428,34.19099]}},{"name":"NAVIS","description":null,"address1":"40 NW Greenwood Ave.","address2":"","zip_code":"97701","city":"Bend","state_code":"OR","country_code":"USA","latitude":44.059936,"longitude":-121.307839,"geopoint":{"type":"Point","coordinates":[-121.307839,44.059936]}},{"name":"TolMol","description":null,"address1":"1215 Villagio Drive","address2":"","zip_code":"95762","city":"El Dorado Hills","state_code":"CA","country_code":"USA","latitude":38.673971,"longitude":-121.04442,"geopoint":{"type":"Point","coordinates":[-121.04442,38.673971]}},{"name":"Folkstr","description":null,"address1":null,"address2":null,"zip_code":null,"city":null,"state_code":null,"country_code":null,"latitude":null,"longitude":null,"geopoint":null},{"name":"I-stats","description":"","address1":"","address2":"","zip_code":"H3H1K4","city":"Montreal","state_code":null,"country_code":"CAN","latitude":40.048078,"longitude":-105.38018,"geopoint":{"type":"Point","coordinates":[-105.38018,40.048078]}},{"name":"Asterpix","description":null,"address1":"4340 Stevens Creek Blvd #191","address2":"","zip_code":"95129","city":"San Jose","state_code":"CA","country_code":"USA","latitude":37.321798,"longitude":-121.979453,"geopoint":{"type":"Point","coordinates":[-121.979453,37.321798]}},{"name":"VZnet Netzwerke","description":"","address1":"Saarbr\u00fccker Strasse 38","address2":"","zip_code":"10405","city":"Berlin","state_code":null,"country_code":"DEU","latitude":52.5290751,"longitude":13.4161514,"geopoint":{"type":"Point","coordinates":[13.4161514,52.5290751]}},{"name":"Eyealike","description":null,"address1":"Sunset Corporate Campus I","address2":"13810 SE Eastgate Way, Suite 320","zip_code":"98005","city":"Bellevue","state_code":"WA","country_code":"USA","latitude":null,"longitude":null,"geopoint":null},{"name":"Daikana","description":null,"address1":"","address2":"","zip_code":"94109","city":"San Francisco","state_code":"CA","country_code":"USA","latitude":37.796164,"longitude":-122.420903,"geopoint":{"type":"Point","coordinates":[-122.420903,37.796164]}},{"name":"TeamWork Live","description":"","address1":"725 14th Ave","address2":"","zip_code":"94118","city":"San Francisco","state_code":"CA","country_code":"USA","latitude":37.762583,"longitude":-122.46487,"geopoint":{"type":"Point","coordinates":[-122.46487,37.762583]}},{"name":"Playfish","description":"Corporate Headquarters","address1":"125 Kensington High St","address2":"W8 5SF","zip_code":"London","city":"London","state_code":null,"country_code":"GBR","latitude":51.4991094,"longitude":-0.1984802,"geopoint":{"type":"Point","coordinates":[-0.1984802,51.4991094]}},{"name":"Playfish","description":"Playfish Arctic","address1":"Strandvn. 106","address2":"","zip_code":"9291","city":"Troms\u00c3\u00b8","state_code":null,"country_code":"NOR","latitude":69.636216,"longitude":18.931062,"geopoint":{"type":"Point","coordinates":[18.931062,69.636216]}},{"name":"tunesBag","description":"","address1":"Erdbergasse 10\/38","address2":"","zip_code":"1030","city":"Vienna","state_code":null,"country_code":"AUT","latitude":null,"longitude":null,"geopoint":null},{"name":"OrangeSoda","description":"Corporate Office","address1":"732 Utah Valley Dr","address2":"","zip_code":"84003","city":"American Fork","state_code":"UT","country_code":"USA","latitude":40.358294,"longitude":-111.780243,"geopoint":{"type":"Point","coordinates":[-111.780243,40.358294]}},{"name":"Infovark","description":null,"address1":"10104 Bushman Drive","address2":"","zip_code":"22124","city":"Oakton","state_code":"VA","country_code":"USA","latitude":38.875724,"longitude":-77.294526,"geopoint":{"type":"Point","coordinates":[-77.294526,38.875724]}},{"name":"RelevantMind","description":null,"address1":"1106 Grizzly Peak Blvd.","address2":"","zip_code":"94708","city":"Berkeley","state_code":"CA","country_code":"USA","latitude":37.892301,"longitude":-122.256239,"geopoint":{"type":"Point","coordinates":[-122.256239,37.892301]}},{"name":"GotVoice","description":null,"address1":"10512 NE 68th Street","address2":"","zip_code":"98033","city":"Kirkland","state_code":"WA","country_code":"USA","latitude":47.666791,"longitude":-122.199525,"geopoint":{"type":"Point","coordinates":[-122.199525,47.666791]}},{"name":"Zigtag","description":null,"address1":"#206 - 9650 - 20 Avenue T6N 1G1","address2":"","zip_code":"T6E 6V7","city":"Edmonton","state_code":null,"country_code":"CAN","latitude":null,"longitude":null,"geopoint":null},{"name":"Bango","description":"Bango","address1":"5 Westbrook Centre","address2":"Milton Road","zip_code":"CB4 1YG","city":"Cambridge","state_code":null,"country_code":"GBR","latitude":52.2155382,"longitude":0.124024,"geopoint":{"type":"Point","coordinates":[0.124024,52.2155382]}},{"name":"Bango","description":"USA","address1":"20 West 22nd Street","address2":"Suite 906","zip_code":"10010","city":"New York","state_code":"NY","country_code":"USA","latitude":40.7412488,"longitude":-73.9912518,"geopoint":{"type":"Point","coordinates":[-73.9912518,40.7412488]}},{"name":"Fresho","description":null,"address1":"","address2":"","zip_code":"","city":"","state_code":null,"country_code":"LVA","latitude":56.879635,"longitude":24.603189,"geopoint":{"type":"Point","coordinates":[24.603189,56.879635]}},{"name":"Berkeley Design Automation","description":"HQ","address1":"2500 Augustine","address2":"Suite 201","zip_code":"95154","city":"Santa Clara","state_code":"CA","country_code":"USA","latitude":37.374659,"longitude":-121.970209,"geopoint":{"type":"Point","coordinates":[-121.970209,37.374659]}},{"name":"TheNextBigWriter","description":null,"address1":"P.O. Box 610383","address2":"","zip_code":"02461","city":"Newton","state_code":"MA","country_code":"USA","latitude":42.314007,"longitude":-71.20848,"geopoint":{"type":"Point","coordinates":[-71.20848,42.314007]}},{"name":"HRSnap! Corporation","description":null,"address1":"848 N. Rainbow Blvd. #2398","address2":"","zip_code":"89107","city":"Las Vegas","state_code":"NV","country_code":"USA","latitude":36.180757,"longitude":-115.242203,"geopoint":{"type":"Point","coordinates":[-115.242203,36.180757]}},{"name":"Myplaylist","description":null,"address1":"","address2":"","zip_code":"","city":"","state_code":null,"country_code":"IND","latitude":20.593684,"longitude":78.96288,"geopoint":{"type":"Point","coordinates":[78.96288,20.593684]}},{"name":"GroupSpaces","description":"Headquarters","address1":"","address2":"","zip_code":"EC1Y 2BP","city":"London","state_code":null,"country_code":"GBR","latitude":null,"longitude":null,"geopoint":null},{"name":"GroupSpaces","description":"U.S. Office","address1":"","address2":"","zip_code":"","city":"New York","state_code":"NY","country_code":"ARA","latitude":null,"longitude":null,"geopoint":null},{"name":"Coull","description":"Coull UK","address1":"6th Floor Centre Gate","address2":"Colston Avenue","zip_code":"BS1 4TR","city":"Bristol","state_code":null,"country_code":"GBR","latitude":null,"longitude":null,"geopoint":null},{"name":"Coull","description":"Coull USA","address1":"1221 State Street","address2":"Suite 200","zip_code":"93101","city":"Santa Barbara,","state_code":"CA","country_code":"USA","latitude":null,"longitude":null,"geopoint":null},{"name":"Trampoline Systems","description":"HQ","address1":"The Trampery","address2":"8-15 Dereham Place","zip_code":"EC2A 3HJ","city":"London","state_code":null,"country_code":"GBR","latitude":51.5212179,"longitude":-0.0869736,"geopoint":{"type":"Point","coordinates":[-0.0869736,51.5212179]}},{"name":"83 Degrees","description":"","address1":"","address2":"","zip_code":"94941","city":"Mill Valley","state_code":"CA","country_code":"USA","latitude":37.904468,"longitude":-122.542491,"geopoint":{"type":"Point","coordinates":[-122.542491,37.904468]}},{"name":"Baidu","description":null,"address1":"No. 58 North-West 4th Ring Road","address2":"Ideal International Plaza, 12 Floor","zip_code":"100080","city":"Beijing","state_code":null,"country_code":"CHN","latitude":null,"longitude":null,"geopoint":null},{"name":"Support Intelligence","description":null,"address1":"333 Valencia St","address2":"Suite 325","zip_code":"94103","city":"San Francisco","state_code":"CA","country_code":"USA","latitude":37.767569,"longitude":-122.42215,"geopoint":{"type":"Point","coordinates":[-122.42215,37.767569]}},{"name":"Acme Mobile","description":null,"address1":"50 B Tras Street","address2":"","zip_code":"078989","city":"Singapore","state_code":null,"country_code":"SGP","latitude":1.278031,"longitude":103.84435,"geopoint":{"type":"Point","coordinates":[103.84435,1.278031]}},{"name":"GreatDomainRace","description":null,"address1":"14455 N Hayden Rd","address2":"","zip_code":"85260","city":"Scottsdale","state_code":"AR","country_code":"USA","latitude":33.617017,"longitude":-111.908293,"geopoint":{"type":"Point","coordinates":[-111.908293,33.617017]}},{"name":"Trovit","description":"","address1":"Diagonal 601, 9\u00aa","address2":"","zip_code":"08028","city":"Barcelona","state_code":null,"country_code":"ESP","latitude":41.388769,"longitude":2.1299487,"geopoint":{"type":"Point","coordinates":[2.1299487,41.388769]}},{"name":"British Telecom","description":null,"address1":null,"address2":null,"zip_code":null,"city":null,"state_code":null,"country_code":null,"latitude":null,"longitude":null,"geopoint":null},{"name":"CVN Networks","description":null,"address1":"No,3-201,5# Building,Lantingli,","address2":"HeDong District","zip_code":"300162","city":"Tianjin","state_code":null,"country_code":"CHN","latitude":null,"longitude":null,"geopoint":null},{"name":"The Beer Mapping Project","description":null,"address1":"2434 N Spaulding Ave","address2":"","zip_code":"60647","city":"Chicago","state_code":"IL","country_code":"USA","latitude":41.925823,"longitude":-87.711114,"geopoint":{"type":"Point","coordinates":[-87.711114,41.925823]}},{"name":"Iminent","description":"","address1":"20 rue Bouvier","address2":"","zip_code":"75011","city":"Paris","state_code":null,"country_code":"FRA","latitude":48.8522431,"longitude":2.387422,"geopoint":{"type":"Point","coordinates":[2.387422,48.8522431]}},{"name":"Picoy","description":null,"address1":null,"address2":null,"zip_code":null,"city":null,"state_code":null,"country_code":null,"latitude":null,"longitude":null,"geopoint":null},{"name":"Mercury Intermedia","description":null,"address1":"214 Overlook Court","address2":"Suite 220","zip_code":"37027","city":"Brentwood","state_code":"TN","country_code":"USA","latitude":36.030702,"longitude":-86.776051,"geopoint":{"type":"Point","coordinates":[-86.776051,36.030702]}},{"name":"Whois","description":null,"address1":"82 Genting Lane","address2":"#03-08","zip_code":"","city":"Singapore","state_code":null,"country_code":"SGP","latitude":1.327062,"longitude":103.875336,"geopoint":{"type":"Point","coordinates":[103.875336,1.327062]}},{"name":"Bizooki","description":null,"address1":"","address2":"","zip_code":"37203","city":"Nashville","state_code":"TN","country_code":"USA","latitude":36.158887,"longitude":-86.782056,"geopoint":{"type":"Point","coordinates":[-86.782056,36.158887]}},{"name":"Bizooki","description":"Headquarters","address1":"","address2":"","zip_code":"44115","city":"Cleveland","state_code":"OH","country_code":"USA","latitude":null,"longitude":null,"geopoint":null},{"name":"Superblock","description":"","address1":"PO Box 40162","address2":"","zip_code":"85717","city":"Tucson","state_code":"AZ","country_code":"USA","latitude":42.233847,"longitude":-88.373701,"geopoint":{"type":"Point","coordinates":[-88.373701,42.233847]}},{"name":"SuperVirals","description":null,"address1":"5\/50 Reservoir St","address2":"","zip_code":"2010","city":"Surry Hills","state_code":null,"country_code":"AUS","latitude":-33.88106,"longitude":151.209351,"geopoint":{"type":"Point","coordinates":[151.209351,-33.88106]}},{"name":"Voices","description":"","address1":"150 Dufferin Ave","address2":"","zip_code":"N6A 5N6","city":"London","state_code":null,"country_code":"CAN","latitude":43.014006,"longitude":-81.280364,"geopoint":{"type":"Point","coordinates":[-81.280364,43.014006]}},{"name":"Triggit","description":"","address1":"1535 Mission St.","address2":"","zip_code":"94103","city":"San Francisco","state_code":"CA","country_code":"USA","latitude":37.771208,"longitude":-122.418129,"geopoint":{"type":"Point","coordinates":[-122.418129,37.771208]}},{"name":"Android","description":"","address1":"156 University Ave","address2":"","zip_code":"94301-1631","city":"Palo Alto","state_code":"CA","country_code":"USA","latitude":37.4440613,"longitude":-122.1629397,"geopoint":{"type":"Point","coordinates":[-122.1629397,37.4440613]}},{"name":"TraceWorks","description":"","address1":"# Amagertorv 1, 3rd floor # DK-1160","address2":"","zip_code":"","city":"Copenhagen K","state_code":null,"country_code":"DNK","latitude":55.678672,"longitude":12.579241,"geopoint":{"type":"Point","coordinates":[12.579241,55.678672]}},{"name":"Danogo","description":null,"address1":"PO Box 765","address2":"","zip_code":"10524","city":"Garrison","state_code":"NY","country_code":"USA","latitude":41.378031,"longitude":-73.925194,"geopoint":{"type":"Point","coordinates":[-73.925194,41.378031]}},{"name":"Empire Group","description":null,"address1":"1306 NW Hoyt St","address2":"Suite 306","zip_code":"97209","city":"Portland","state_code":"OR","country_code":"USA","latitude":45.527202,"longitude":-122.684376,"geopoint":{"type":"Point","coordinates":[-122.684376,45.527202]}},{"name":"Memopal","description":null,"address1":"Via Nepal, 29","address2":"","zip_code":"00144","city":"Rome","state_code":null,"country_code":"ITA","latitude":41.823172,"longitude":12.461425,"geopoint":{"type":"Point","coordinates":[12.461425,41.823172]}},{"name":"Conenza","description":"","address1":"810 Third Ave","address2":"Suite 730","zip_code":"98104","city":"Seattle","state_code":"WA","country_code":"USA","latitude":47.603176,"longitude":-122.3333044,"geopoint":{"type":"Point","coordinates":[-122.3333044,47.603176]}},{"name":"Your Survival","description":"","address1":"PO Box 731","address2":"","zip_code":"06890","city":"Southport","state_code":"CT","country_code":"USA","latitude":41.137996,"longitude":-73.34415,"geopoint":{"type":"Point","coordinates":[-73.34415,41.137996]}},{"name":"SEO Workers","description":null,"address1":"Willi-Stoer Str. 4","address2":"","zip_code":"86159","city":"Augsburg","state_code":null,"country_code":"DEU","latitude":48.333702,"longitude":10.90602,"geopoint":{"type":"Point","coordinates":[10.90602,48.333702]}},{"name":"Cellity","description":null,"address1":"Stahltwiete 23","address2":"","zip_code":"22761","city":"Hamburg","state_code":null,"country_code":"DEU","latitude":53.563564,"longitude":9.926475,"geopoint":{"type":"Point","coordinates":[9.926475,53.563564]}},{"name":"TerraPass","description":"","address1":"527 Howard St.","address2":"4th Floor","zip_code":"94105","city":"San Francisco","state_code":"CA","country_code":"USA","latitude":37.787445,"longitude":-122.397847,"geopoint":{"type":"Point","coordinates":[-122.397847,37.787445]}},{"name":"WrapMail","description":null,"address1":"305 S. Andrews Avenue","address2":"Suite 601","zip_code":"33301","city":"Fort Lauderdale","state_code":"FL","country_code":"USA","latitude":26.119403,"longitude":-80.143394,"geopoint":{"type":"Point","coordinates":[-80.143394,26.119403]}},{"name":"JustMeans","description":null,"address1":"100 Borough High Street","address2":"","zip_code":"SE1 1YB","city":"London","state_code":null,"country_code":"GBR","latitude":51.503188,"longitude":-0.091784,"geopoint":{"type":"Point","coordinates":[-0.091784,51.503188]}},{"name":"Pixaria","description":"","address1":"","address2":"","zip_code":"","city":"Missisauga","state_code":null,"country_code":"CAN","latitude":43.653226,"longitude":-79.3831843,"geopoint":{"type":"Point","coordinates":[-79.3831843,43.653226]}},{"name":"Global Business Development Services","description":"","address1":"800 Liberty St.","address2":"","zip_code":"97520","city":"Ashland","state_code":"OR","country_code":"USA","latitude":42.1827347,"longitude":-122.7032759,"geopoint":{"type":"Point","coordinates":[-122.7032759,42.1827347]}},{"name":"Roku","description":null,"address1":"12980 Saratoga Ave., Ste. D","address2":"","zip_code":"95070","city":"Saratoga","state_code":"CA","country_code":"USA","latitude":37.279969,"longitude":-122.002271,"geopoint":{"type":"Point","coordinates":[-122.002271,37.279969]}},{"name":"Locify","description":null,"address1":"6 Bexley Square","address2":"Salford","zip_code":"M3 6BZ","city":"Manchester","state_code":null,"country_code":"GBR","latitude":53.48336,"longitude":-2.259258,"geopoint":{"type":"Point","coordinates":[-2.259258,53.48336]}},{"name":"RabbleDabble","description":null,"address1":"","address2":"","zip_code":"94111","city":"San Francisco","state_code":"CA","country_code":"USA","latitude":37.798853,"longitude":-122.398599,"geopoint":{"type":"Point","coordinates":[-122.398599,37.798853]}},{"name":"Sxip Identity","description":null,"address1":"798 Beatty Street","address2":"","zip_code":"V6B 2M1","city":"Vancouver","state_code":null,"country_code":"CAN","latitude":49.277599,"longitude":-123.113946,"geopoint":{"type":"Point","coordinates":[-123.113946,49.277599]}},{"name":"C4Media","description":null,"address1":"","address2":"","zip_code":"","city":"Toronto","state_code":null,"country_code":"CAN","latitude":43.670233,"longitude":-79.386755,"geopoint":{"type":"Point","coordinates":[-79.386755,43.670233]}},{"name":"Oxynade","description":"Oxynade headquarters","address1":"Grauwpoort 1","address2":"","zip_code":"9000","city":"Ghent","state_code":null,"country_code":"BEL","latitude":51.050314,"longitude":3.71105,"geopoint":{"type":"Point","coordinates":[3.71105,51.050314]}},{"name":"Versaly Entertainment","description":"Main Office","address1":"","address2":"","zip_code":"98004","city":"Bellevue","state_code":"WA","country_code":"USA","latitude":47.626479,"longitude":-122.205149,"geopoint":{"type":"Point","coordinates":[-122.205149,47.626479]}},{"name":"OneScreen","description":"OneScreen Headquarters","address1":"310 Commerce, Suite 200","address2":"","zip_code":"92602","city":"Irvine","state_code":"CA","country_code":"USA","latitude":null,"longitude":null,"geopoint":null},{"name":"PageUp People","description":"","address1":"Level 10","address2":"91 William St","zip_code":"3000","city":"Melbourne, VIC","state_code":null,"country_code":"AUS","latitude":-38.372965,"longitude":144.816292,"geopoint":{"type":"Point","coordinates":[144.816292,-38.372965]}},{"name":"PageUp People","description":"","address1":"10475 Medlock Bridge Rd","address2":"Suite 310","zip_code":"30097","city":"Johns Creek","state_code":"GA","country_code":"USA","latitude":42.377224,"longitude":-76.295126,"geopoint":{"type":"Point","coordinates":[-76.295126,42.377224]}},{"name":"PageUp People","description":"","address1":"11-15 Betterton St","address2":"Covent Garden","zip_code":"WC2H 9BP","city":"London","state_code":null,"country_code":"GBR","latitude":51.515124,"longitude":-0.123614,"geopoint":{"type":"Point","coordinates":[-0.123614,51.515124]}},{"name":"PageUp People","description":"","address1":"Room 2102, Building A Shanghai Universal Mansion No. 172,","address2":"Yu Yuan Rd","zip_code":"200040","city":"Jing'an District, Shanghai","state_code":null,"country_code":"CHN","latitude":null,"longitude":null,"geopoint":null},{"name":"Jigsaw","description":"","address1":"777 Mariners Island Boulevard","address2":"4th Floor","zip_code":"94404","city":"San Mateo","state_code":"CA","country_code":"USA","latitude":37.552806,"longitude":-122.291602,"geopoint":{"type":"Point","coordinates":[-122.291602,37.552806]}},{"name":"Inertia Beverage Group","description":"HQ","address1":"1190 Airport Boulevard","address2":"Napa Valley Gateway Plaza, Suite 200","zip_code":"94558","city":"Napa","state_code":"CA","country_code":"USA","latitude":38.223032,"longitude":-122.261642,"geopoint":{"type":"Point","coordinates":[-122.261642,38.223032]}},{"name":"Coolboysoft","description":null,"address1":"","address2":"","zip_code":"","city":"","state_code":null,"country_code":"CAN","latitude":56.130366,"longitude":-106.346771,"geopoint":{"type":"Point","coordinates":[-106.346771,56.130366]}},{"name":"Limbo","description":"HQ","address1":"270 East Lane","address2":"Suite 1","zip_code":"94010","city":"Burlingame","state_code":"CA","country_code":"USA","latitude":37.580304,"longitude":-122.343679,"geopoint":{"type":"Point","coordinates":[-122.343679,37.580304]}},{"name":"Jungle Jam Tv","description":null,"address1":"","address2":"","zip_code":"","city":"Bologna","state_code":null,"country_code":"ITA","latitude":44.494446,"longitude":11.349231,"geopoint":{"type":"Point","coordinates":[11.349231,44.494446]}},{"name":"Muecs","description":"Hong Kong Office","address1":"Unit 208A 2\/F, Enterprise Place (Building 9),","address2":"No.5 Science Park West Ave.,","zip_code":"","city":"Shatin","state_code":null,"country_code":"HKG","latitude":null,"longitude":null,"geopoint":null},{"name":"vLex","description":"VLEX HQ (Barcelona)","address1":"Consell de Cent 334","address2":"","zip_code":"E08009","city":"Barcelona","state_code":null,"country_code":"ESP","latitude":41.392852,"longitude":2.168021,"geopoint":{"type":"Point","coordinates":[2.168021,41.392852]}},{"name":"vLex","description":"VLEX North America","address1":"1840 Gateway Drive, Suite 200","address2":"","zip_code":"94404","city":"San Mateo","state_code":"CA","country_code":"USA","latitude":37.55873,"longitude":-122.27992,"geopoint":{"type":"Point","coordinates":[-122.27992,37.55873]}},{"name":"vLex","description":"VLEX Latin America","address1":"Pte. Roque Saenz Pe\u00c3\u00b1a 995, 1D","address2":"","zip_code":"1035","city":"Buenos Aires","state_code":null,"country_code":"ARG","latitude":null,"longitude":null,"geopoint":null},{"name":"WatchDoit","description":"WatchDoit Main Office","address1":"1715 Minnewawa","address2":"","zip_code":"93612","city":"Clovis","state_code":"CA","country_code":"USA","latitude":36.811069,"longitude":-119.709092,"geopoint":{"type":"Point","coordinates":[-119.709092,36.811069]}},{"name":"Syntac Ventures","description":"HQ","address1":"","address2":"","zip_code":"3000","city":"Melbourne","state_code":null,"country_code":"AUS","latitude":-37.813339,"longitude":144.970823,"geopoint":{"type":"Point","coordinates":[144.970823,-37.813339]}},{"name":"Ziippi","description":"Ziippi","address1":"228 Hamilton Avenue","address2":"4th Floor","zip_code":"94301","city":"Palo Alto","state_code":"CA","country_code":"USA","latitude":37.4440981,"longitude":-122.1612868,"geopoint":{"type":"Point","coordinates":[-122.1612868,37.4440981]}},{"name":"iMediaBlitz","description":"Head Office","address1":"24 Pusa Road","address2":"","zip_code":"110005","city":"Delhi","state_code":null,"country_code":"IND","latitude":28.642933,"longitude":77.181639,"geopoint":{"type":"Point","coordinates":[77.181639,28.642933]}},{"name":"Cupid's Lab","description":null,"address1":null,"address2":null,"zip_code":null,"city":null,"state_code":null,"country_code":null,"latitude":null,"longitude":null,"geopoint":null},{"name":"Fashionspace","description":"","address1":"F5 Hirzel Court","address2":"","zip_code":"GY1 4HU","city":"Guernsey","state_code":null,"country_code":"GBR","latitude":null,"longitude":null,"geopoint":null},{"name":"fundfindr","description":"","address1":"Suite 400","address2":"21 Water Street","zip_code":"V6B 1A1","city":"Vancouver","state_code":null,"country_code":"CAN","latitude":null,"longitude":null,"geopoint":null},{"name":"BTRCL","description":"London Office","address1":"5 Leicester Court","address2":"24 Clevedon Road","zip_code":"TW1 2TB","city":"Twickenham","state_code":null,"country_code":"GBR","latitude":null,"longitude":null,"geopoint":null},{"name":"Guruji","description":"Corporate Office","address1":"3J,  3rd Cross, 7th 'C' Main","address2":"3rd Block, Koramangala","zip_code":"560034","city":"Bangalore","state_code":null,"country_code":"IND","latitude":12.937677,"longitude":77.56574,"geopoint":{"type":"Point","coordinates":[77.56574,12.937677]}},{"name":"Overstream","description":"","address1":"235 Montgomery St.","address2":"Suite 600","zip_code":"94104","city":"San Francisco","state_code":"CA","country_code":"USA","latitude":37.791391,"longitude":-122.402859,"geopoint":{"type":"Point","coordinates":[-122.402859,37.791391]}},{"name":"Yovia","description":"Home Office","address1":"2583 Mayport Road","address2":"Suite 101","zip_code":"32233","city":"Atlantic Beach","state_code":"FL","country_code":"USA","latitude":30.3592737,"longitude":-81.4128706,"geopoint":{"type":"Point","coordinates":[-81.4128706,30.3592737]}},{"name":"Tangivel","description":"Instituto Pedro Nunes","address1":"Quinta da Nora","address2":"","zip_code":"3030-199 Coimbra","city":"Coimbra","state_code":null,"country_code":"PRT","latitude":40.19266,"longitude":-8.418228,"geopoint":{"type":"Point","coordinates":[-8.418228,40.19266]}},{"name":"Tangivel","description":"Edificio Expobeiras","address1":"Parque Industrial de Coimbroes","address2":"","zip_code":"3500-618 Viseu","city":"Viseu","state_code":null,"country_code":"PRT","latitude":null,"longitude":null,"geopoint":null},{"name":"Tatango","description":"Tatango Office","address1":"2211 Elliott Avenue","address2":"Suite 200","zip_code":"98121","city":"Bellingham","state_code":"WA","country_code":"USA","latitude":48.8784787,"longitude":-122.6242375,"geopoint":{"type":"Point","coordinates":[-122.6242375,48.8784787]}},{"name":"Ounce Labs","description":"Main Office","address1":"100 Fifth Ave","address2":"","zip_code":"02451","city":"Waltham","state_code":"MA","country_code":"USA","latitude":42.393662,"longitude":-71.255855,"geopoint":{"type":"Point","coordinates":[-71.255855,42.393662]}},{"name":"InThrMa","description":"HQ","address1":"PO Box 10001","address2":"","zip_code":"94610","city":"Oakland","state_code":"CA","country_code":"USA","latitude":37.810448,"longitude":-122.239864,"geopoint":{"type":"Point","coordinates":[-122.239864,37.810448]}},{"name":"Solaiemes","description":"Solaiemes Headquarter","address1":"Av\/ General Fanjul","address2":"2-Bis, office 3-5","zip_code":"28044","city":"Madrid","state_code":null,"country_code":"ESP","latitude":40.382338,"longitude":-3.773844,"geopoint":{"type":"Point","coordinates":[-3.773844,40.382338]}},{"name":"MEDDIA","description":"Headquarters","address1":"Av. Diagonal 237","address2":"","zip_code":"08013","city":"Barcelona","state_code":null,"country_code":"ESP","latitude":41.4018094,"longitude":2.1815648,"geopoint":{"type":"Point","coordinates":[2.1815648,41.4018094]}},{"name":"MICROTRONICS","description":"World Headquarters","address1":"Hauptstrasse 7","address2":"","zip_code":"3244","city":"Ruprechtshofen","state_code":null,"country_code":"AUT","latitude":48.137693,"longitude":15.278442,"geopoint":{"type":"Point","coordinates":[15.278442,48.137693]}},{"name":"SmallWorldTickets","description":"","address1":"P.O. Box 5340","address2":"","zip_code":"21209","city":"Mt. Washington","state_code":"MD","country_code":"USA","latitude":39.366544,"longitude":-76.669726,"geopoint":{"type":"Point","coordinates":[-76.669726,39.366544]}},{"name":"Goodlife Media","description":null,"address1":null,"address2":null,"zip_code":null,"city":null,"state_code":null,"country_code":null,"latitude":null,"longitude":null,"geopoint":null},{"name":"Arkiva","description":null,"address1":null,"address2":null,"zip_code":null,"city":null,"state_code":null,"country_code":null,"latitude":null,"longitude":null,"geopoint":null},{"name":"Chapatiz","description":"","address1":"P\u00c3\u00a9pini\u00c3\u00a8re Contenus Num\u00c3\u00a9riques","address2":"80 rue des haies","zip_code":"75020","city":"Paris","state_code":null,"country_code":"FRA","latitude":null,"longitude":null,"geopoint":null},{"name":"YOOWALK","description":"","address1":"28 rue Fr\u00c3\u00a9micourt","address2":"","zip_code":"75015","city":"Paris","state_code":null,"country_code":"FRA","latitude":48.8475487,"longitude":2.2992348,"geopoint":{"type":"Point","coordinates":[2.2992348,48.8475487]}},{"name":"Data Domain","description":"EMC Backup Division","address1":"2421 Mission College Blvd.","address2":"","zip_code":"95054","city":"Santa Clara","state_code":"CA","country_code":"USA","latitude":37.390114,"longitude":-121.970327,"geopoint":{"type":"Point","coordinates":[-121.970327,37.390114]}},{"name":"Urbanspoon","description":"","address1":"117 E. Louisa St.","address2":"#451","zip_code":"98102","city":"Seattle","state_code":"WA","country_code":"USA","latitude":47.6420401,"longitude":-122.3263922,"geopoint":{"type":"Point","coordinates":[-122.3263922,47.6420401]}},{"name":"4chan","description":null,"address1":null,"address2":null,"zip_code":null,"city":null,"state_code":null,"country_code":null,"latitude":null,"longitude":null,"geopoint":null},{"name":"LenderFlex","description":"Headquarters","address1":"P.O. Box 191054","address2":"","zip_code":"31119-1054","city":"Atlanta","state_code":"GA","country_code":"USA","latitude":33.75,"longitude":-84.2995,"geopoint":{"type":"Point","coordinates":[-84.2995,33.75]}},{"name":"Noter","description":"Waterloo Office","address1":"Suite 23","address2":"250 Keats Way","zip_code":"N2L5H3","city":"Waterloo","state_code":null,"country_code":"CAN","latitude":null,"longitude":null,"geopoint":null},{"name":"Beanbag Learning","description":"Head Office","address1":"Third floor, St Thomas Court","address2":"Thomas Lane","zip_code":"BS1 6JG","city":"Bristol","state_code":null,"country_code":"GBR","latitude":null,"longitude":null,"geopoint":null},{"name":"Zendesk","description":"Headquarters","address1":"989 Market St","address2":"St 300","zip_code":"94102","city":"San Francisco","state_code":"CA","country_code":"USA","latitude":55.676294,"longitude":12.568116,"geopoint":{"type":"Point","coordinates":[12.568116,55.676294]}},{"name":"Skillr","description":"Prague Office","address1":"Pospisilova 5","address2":"","zip_code":"13000","city":"Prague","state_code":null,"country_code":"CZE","latitude":50.080907,"longitude":14.449612,"geopoint":{"type":"Point","coordinates":[14.449612,50.080907]}},{"name":"Webalytics","description":"HQ","address1":"","address2":"","zip_code":"","city":"Lexington","state_code":"KY","country_code":"USA","latitude":38.048906,"longitude":-84.499838,"geopoint":{"type":"Point","coordinates":[-84.499838,38.048906]}},{"name":"Ocean Online Group","description":"","address1":"200 North Michigan Ave","address2":"Suite #500","zip_code":"60601","city":"Chicago","state_code":"IL","country_code":"USA","latitude":41.886088,"longitude":-87.624983,"geopoint":{"type":"Point","coordinates":[-87.624983,41.886088]}},{"name":"Scriblink","description":null,"address1":null,"address2":null,"zip_code":null,"city":null,"state_code":null,"country_code":null,"latitude":null,"longitude":null,"geopoint":null},{"name":"Hire-seo","description":null,"address1":null,"address2":null,"zip_code":null,"city":null,"state_code":null,"country_code":null,"latitude":null,"longitude":null,"geopoint":null},{"name":"Transposagen Biopharmaceuticals","description":"","address1":"","address2":"","zip_code":"40507","city":"Lexington","state_code":"KY","country_code":"USA","latitude":38.048906,"longitude":-84.499838,"geopoint":{"type":"Point","coordinates":[-84.499838,38.048906]}},{"name":"Photosleeve","description":"","address1":"16541 Redmond Way","address2":"464-C","zip_code":"98052","city":"Redmond","state_code":"WA","country_code":"USA","latitude":47.6732717,"longitude":-122.1192586,"geopoint":{"type":"Point","coordinates":[-122.1192586,47.6732717]}},{"name":"Admeld","description":"Admeld NYC (HQ)","address1":"One Madison Ave","address2":"4th Floor","zip_code":"10010","city":"New York","state_code":"NY","country_code":"USA","latitude":40.755253,"longitude":-73.992152,"geopoint":{"type":"Point","coordinates":[-73.992152,40.755253]}},{"name":"Admeld","description":"AdMeld UK","address1":"Butler House","address2":"177-178 Tottenham Court Rd","zip_code":"W1T 7NY","city":"London","state_code":null,"country_code":"GBR","latitude":null,"longitude":null,"geopoint":null},{"name":"Admeld","description":"Admeld Berlin","address1":"M\u00c3\u00bcnzstra\u00c3\u0178e 19","address2":"","zip_code":"10178","city":"Berlin","state_code":null,"country_code":"DEU","latitude":null,"longitude":null,"geopoint":null},{"name":"Albion","description":"Albion","address1":"Tea Building","address2":"Shoreditch High Street","zip_code":"E16JJ","city":"London","state_code":null,"country_code":"GBR","latitude":null,"longitude":null,"geopoint":null},{"name":"FuseMail","description":"Corporate Headquarters","address1":"12200 N Ambassador Drive","address2":"Suite 232","zip_code":"64163","city":"Kansas City","state_code":"MO","country_code":"USA","latitude":39.313993,"longitude":-94.682422,"geopoint":{"type":"Point","coordinates":[-94.682422,39.313993]}},{"name":"ListerTalent","description":"Head Office","address1":"7 Maplespeen Court","address2":"Old Bath Road","zip_code":"RG14 1NL","city":"Newbury","state_code":null,"country_code":"GBR","latitude":51.405977,"longitude":-1.329241,"geopoint":{"type":"Point","coordinates":[-1.329241,51.405977]}},{"name":"Mercedez Benz","description":null,"address1":null,"address2":null,"zip_code":null,"city":null,"state_code":null,"country_code":null,"latitude":null,"longitude":null,"geopoint":null},{"name":"KDDI","description":"Headquarters","address1":"Garden Air Tower, 10-10","address2":"Iidabashi 3-chome, Chiyoda-ku","zip_code":"102-8460","city":"Tokyo","state_code":null,"country_code":"JPN","latitude":null,"longitude":null,"geopoint":null},{"name":"KDDI","description":"KDDI Open Innovation Fund","address1":"","address2":"","zip_code":"","city":"San Francisco","state_code":"CA","country_code":"USA","latitude":null,"longitude":null,"geopoint":null},{"name":"Ecolect","description":"West Coast","address1":"19 Rausch Street","address2":"Suite C","zip_code":"9403","city":"San Francisco","state_code":"CA","country_code":"USA","latitude":37.776769,"longitude":-122.410111,"geopoint":{"type":"Point","coordinates":[-122.410111,37.776769]}},{"name":"Ecolect","description":"East Coast","address1":"60 Valley Street","address2":"Unit 7","zip_code":"02909","city":"Providence","state_code":"RI","country_code":"USA","latitude":41.817973,"longitude":-71.441418,"geopoint":{"type":"Point","coordinates":[-71.441418,41.817973]}},{"name":"WireLoad","description":"","address1":"","address2":"","zip_code":"","city":"Mountain View","state_code":"CA","country_code":"USA","latitude":37.400465,"longitude":-122.073003,"geopoint":{"type":"Point","coordinates":[-122.073003,37.400465]}},{"name":"Bridgevest eSolutions","description":"Rotterdam","address1":"Westblaak 180","address2":"","zip_code":"3012KN","city":"Rotterdam","state_code":null,"country_code":"NLD","latitude":51.916547,"longitude":4.475797,"geopoint":{"type":"Point","coordinates":[4.475797,51.916547]}},{"name":"J-Magic","description":"Headquarter","address1":"3-4-30 Shiba Koen, 32 Shiba Koen Bldg. 10F","address2":"Minato-Ku","zip_code":"105-0011","city":"Tokyo","state_code":null,"country_code":"JPN","latitude":null,"longitude":null,"geopoint":null},{"name":"Installer Apps","description":null,"address1":null,"address2":null,"zip_code":null,"city":null,"state_code":null,"country_code":null,"latitude":null,"longitude":null,"geopoint":null},{"name":"Alpha Systems Ltd  ( Mauritius )","description":"Alpha Systems Ltd","address1":"8 Leonce Loiseau Street","address2":"","zip_code":"","city":"Port Louis","state_code":null,"country_code":"MUS","latitude":null,"longitude":null,"geopoint":null},{"name":"Rockoko","description":"HQ","address1":"14 Park Street","address2":"Leamington Spa","zip_code":"CV32 4QN","city":"","state_code":null,"country_code":"GBR","latitude":52.291474,"longitude":-1.533601,"geopoint":{"type":"Point","coordinates":[-1.533601,52.291474]}},{"name":"Onehub","description":"Headquarters","address1":"105 S Main Street","address2":"Suite 240","zip_code":"98104","city":"Seattle","state_code":"WA","country_code":"USA","latitude":47.580235,"longitude":-122.145038,"geopoint":{"type":"Point","coordinates":[-122.145038,47.580235]}},{"name":"ReTel Technologies","description":"Main Office","address1":"","address2":"","zip_code":"94105","city":"San Francisco","state_code":"CA","country_code":"USA","latitude":41.78942,"longitude":-87.596232,"geopoint":{"type":"Point","coordinates":[-87.596232,41.78942]}},{"name":"Enthusem","description":"Enthusem\/Prospect Smarter","address1":"2502 N Rocky Point #500","address2":"","zip_code":"33607","city":"Tampa","state_code":"FL","country_code":"USA","latitude":28.0558376,"longitude":-82.6427617,"geopoint":{"type":"Point","coordinates":[-82.6427617,28.0558376]}},{"name":"DailyBurn","description":"","address1":"555 West 18th Street","address2":"","zip_code":"10011","city":"New York","state_code":"NY","country_code":"USA","latitude":null,"longitude":null,"geopoint":null},{"name":"Fitbit","description":"lalala","address1":"150 Spear St","address2":"","zip_code":"94105-1503","city":"San Francisco","state_code":"CA","country_code":"USA","latitude":null,"longitude":null,"geopoint":null},{"name":"Me-trics","description":"","address1":"621 S. Blair Ave.","address2":"","zip_code":"48067","city":"Royal Oak","state_code":"MI","country_code":"USA","latitude":42.484985,"longitude":-83.128937,"geopoint":{"type":"Point","coordinates":[-83.128937,42.484985]}},{"name":"Shooting People","description":"London office","address1":"Hoxton Street","address2":"","zip_code":"N16NG","city":"London","state_code":null,"country_code":"GBR","latitude":null,"longitude":null,"geopoint":null},{"name":"Dada Entertainment","description":"Headquarters","address1":"11 West 42nd Street","address2":"15th Floor","zip_code":"10036","city":"New York","state_code":"NY","country_code":"USA","latitude":40.7543,"longitude":-73.981847,"geopoint":{"type":"Point","coordinates":[-73.981847,40.7543]}},{"name":"Rush Hour","description":"EMEA","address1":"Youghal","address2":"","zip_code":"000000","city":"Cork","state_code":null,"country_code":"IRL","latitude":null,"longitude":null,"geopoint":null},{"name":"MicroBilt Corporation","description":"Kennesaw Office","address1":"1640 Airport Rd","address2":"Suite 115","zip_code":"30144","city":"Kennesaw","state_code":"GA","country_code":"USA","latitude":34.011396,"longitude":-84.597071,"geopoint":{"type":"Point","coordinates":[-84.597071,34.011396]}},{"name":"MicroBilt Corporation","description":"New Jersey Office","address1":"100 Canal Pointe Blvd","address2":"Suite 208","zip_code":"08540-7063","city":"Princeton","state_code":"NJ","country_code":"USA","latitude":40.316317,"longitude":-74.661093,"geopoint":{"type":"Point","coordinates":[-74.661093,40.316317]}},{"name":"ProCPR","description":"Corporate Office","address1":"5005 Plainfield St. NE","address2":"Ste. B","zip_code":"49525","city":"Grand Rapids","state_code":"MI","country_code":"USA","latitude":43.0530176,"longitude":-85.5950353,"geopoint":{"type":"Point","coordinates":[-85.5950353,43.0530176]}},{"name":"iWeb Technologies","description":"iWeb Headquarters","address1":"20 Place du Commerce","address2":"","zip_code":"H3E 1Z6","city":"Montreal, Qu\u00c3\u00a9bec","state_code":null,"country_code":"CAN","latitude":45.467876,"longitude":-73.54266,"geopoint":{"type":"Point","coordinates":[-73.54266,45.467876]}},{"name":"Kale Host","description":"Corporate Headquarters","address1":"PK 1000 Ulus","address2":"","zip_code":"06040","city":"Ankara","state_code":null,"country_code":"TUR","latitude":null,"longitude":null,"geopoint":null},{"name":"Adaptive Technologies(ATi)","description":"","address1":"4530 East Shea Boulevard","address2":"Suite 130","zip_code":"85028","city":"Phoenix","state_code":"AZ","country_code":"USA","latitude":33.58308,"longitude":-111.983364,"geopoint":{"type":"Point","coordinates":[-111.983364,33.58308]}},{"name":"Yerbabuena Software","description":"Office","address1":"Alessandro Volta 2, Oficina 18","address2":"","zip_code":"29590","city":"Madrid","state_code":null,"country_code":"ESP","latitude":null,"longitude":null,"geopoint":null},{"name":"QuirkyOnline","description":null,"address1":null,"address2":null,"zip_code":null,"city":null,"state_code":null,"country_code":null,"latitude":null,"longitude":null,"geopoint":null},{"name":"KDDI","description":"Headquarters","address1":"Garden Air Tower, 10-10","address2":"Iidabashi 3-chome, Chiyoda-ku","zip_code":"102-8460","city":"Tokyo","state_code":null,"country_code":"JPN","latitude":null,"longitude":null,"geopoint":null},{"name":"KDDI","description":"KDDI Open Innovation Fund","address1":"","address2":"","zip_code":"","city":"San Francisco","state_code":"CA","country_code":"USA","latitude":null,"longitude":null,"geopoint":null},{"name":"Ecolect","description":"West Coast","address1":"19 Rausch Street","address2":"Suite C","zip_code":"9403","city":"San Francisco","state_code":"CA","country_code":"USA","latitude":37.776769,"longitude":-122.410111,"geopoint":{"type":"Point","coordinates":[-122.410111,37.776769]}},{"name":"Ecolect","description":"East Coast","address1":"60 Valley Street","address2":"Unit 7","zip_code":"02909","city":"Providence","state_code":"RI","country_code":"USA","latitude":41.817973,"longitude":-71.441418,"geopoint":{"type":"Point","coordinates":[-71.441418,41.817973]}},{"name":"WireLoad","description":"","address1":"","address2":"","zip_code":"","city":"Mountain View","state_code":"CA","country_code":"USA","latitude":37.400465,"longitude":-122.073003,"geopoint":{"type":"Point","coordinates":[-122.073003,37.400465]}},{"name":"Bridgevest eSolutions","description":"Rotterdam","address1":"Westblaak 180","address2":"","zip_code":"3012KN","city":"Rotterdam","state_code":null,"country_code":"NLD","latitude":51.916547,"longitude":4.475797,"geopoint":{"type":"Point","coordinates":[4.475797,51.916547]}},{"name":"J-Magic","description":"Headquarter","address1":"3-4-30 Shiba Koen, 32 Shiba Koen Bldg. 10F","address2":"Minato-Ku","zip_code":"105-0011","city":"Tokyo","state_code":null,"country_code":"JPN","latitude":null,"longitude":null,"geopoint":null},{"name":"Installer Apps","description":null,"address1":null,"address2":null,"zip_code":null,"city":null,"state_code":null,"country_code":null,"latitude":null,"longitude":null,"geopoint":null},{"name":"Alpha Systems Ltd  ( Mauritius )","description":"Alpha Systems Ltd","address1":"8 Leonce Loiseau Street","address2":"","zip_code":"","city":"Port Louis","state_code":null,"country_code":"MUS","latitude":null,"longitude":null,"geopoint":null},{"name":"Rockoko","description":"HQ","address1":"14 Park Street","address2":"Leamington Spa","zip_code":"CV32 4QN","city":"","state_code":null,"country_code":"GBR","latitude":52.291474,"longitude":-1.533601,"geopoint":{"type":"Point","coordinates":[-1.533601,52.291474]}},{"name":"Onehub","description":"Headquarters","address1":"105 S Main Street","address2":"Suite 240","zip_code":"98104","city":"Seattle","state_code":"WA","country_code":"USA","latitude":47.580235,"longitude":-122.145038,"geopoint":{"type":"Point","coordinates":[-122.145038,47.580235]}},{"name":"ReTel Technologies","description":"Main Office","address1":"","address2":"","zip_code":"94105","city":"San Francisco","state_code":"CA","country_code":"USA","latitude":41.78942,"longitude":-87.596232,"geopoint":{"type":"Point","coordinates":[-87.596232,41.78942]}},{"name":"Enthusem","description":"Enthusem\/Prospect Smarter","address1":"2502 N Rocky Point #500","address2":"","zip_code":"33607","city":"Tampa","state_code":"FL","country_code":"USA","latitude":28.0558376,"longitude":-82.6427617,"geopoint":{"type":"Point","coordinates":[-82.6427617,28.0558376]}},{"name":"DailyBurn","description":"","address1":"555 West 18th Street","address2":"","zip_code":"10011","city":"New York","state_code":"NY","country_code":"USA","latitude":null,"longitude":null,"geopoint":null},{"name":"Fitbit","description":"lalala","address1":"150 Spear St","address2":"","zip_code":"94105-1503","city":"San Francisco","state_code":"CA","country_code":"USA","latitude":null,"longitude":null,"geopoint":null},{"name":"Me-trics","description":"","address1":"621 S. Blair Ave.","address2":"","zip_code":"48067","city":"Royal Oak","state_code":"MI","country_code":"USA","latitude":42.484985,"longitude":-83.128937,"geopoint":{"type":"Point","coordinates":[-83.128937,42.484985]}},{"name":"Shooting People","description":"London office","address1":"Hoxton Street","address2":"","zip_code":"N16NG","city":"London","state_code":null,"country_code":"GBR","latitude":null,"longitude":null,"geopoint":null},{"name":"Rush Hour","description":"EMEA","address1":"Youghal","address2":"","zip_code":"000000","city":"Cork","state_code":null,"country_code":"IRL","latitude":null,"longitude":null,"geopoint":null},{"name":"Dada Entertainment","description":"Headquarters","address1":"11 West 42nd Street","address2":"15th Floor","zip_code":"10036","city":"New York","state_code":"NY","country_code":"USA","latitude":40.7543,"longitude":-73.981847,"geopoint":{"type":"Point","coordinates":[-73.981847,40.7543]}},{"name":"MicroBilt Corporation","description":"Kennesaw Office","address1":"1640 Airport Rd","address2":"Suite 115","zip_code":"30144","city":"Kennesaw","state_code":"GA","country_code":"USA","latitude":34.011396,"longitude":-84.597071,"geopoint":{"type":"Point","coordinates":[-84.597071,34.011396]}},{"name":"MicroBilt Corporation","description":"New Jersey Office","address1":"100 Canal Pointe Blvd","address2":"Suite 208","zip_code":"08540-7063","city":"Princeton","state_code":"NJ","country_code":"USA","latitude":40.316317,"longitude":-74.661093,"geopoint":{"type":"Point","coordinates":[-74.661093,40.316317]}},{"name":"ProCPR","description":"Corporate Office","address1":"5005 Plainfield St. NE","address2":"Ste. B","zip_code":"49525","city":"Grand Rapids","state_code":"MI","country_code":"USA","latitude":43.0530176,"longitude":-85.5950353,"geopoint":{"type":"Point","coordinates":[-85.5950353,43.0530176]}},{"name":"iWeb Technologies","description":"iWeb Headquarters","address1":"20 Place du Commerce","address2":"","zip_code":"H3E 1Z6","city":"Montreal, Qu\u00c3\u00a9bec","state_code":null,"country_code":"CAN","latitude":45.467876,"longitude":-73.54266,"geopoint":{"type":"Point","coordinates":[-73.54266,45.467876]}},{"name":"Kale Host","description":"Corporate Headquarters","address1":"PK 1000 Ulus","address2":"","zip_code":"06040","city":"Ankara","state_code":null,"country_code":"TUR","latitude":null,"longitude":null,"geopoint":null},{"name":"Adaptive Technologies(ATi)","description":"","address1":"4530 East Shea Boulevard","address2":"Suite 130","zip_code":"85028","city":"Phoenix","state_code":"AZ","country_code":"USA","latitude":33.58308,"longitude":-111.983364,"geopoint":{"type":"Point","coordinates":[-111.983364,33.58308]}},{"name":"Yerbabuena Software","description":"Office","address1":"Alessandro Volta 2, Oficina 18","address2":"","zip_code":"29590","city":"Madrid","state_code":null,"country_code":"ESP","latitude":null,"longitude":null,"geopoint":null},{"name":"QuirkyOnline","description":null,"address1":null,"address2":null,"zip_code":null,"city":null,"state_code":null,"country_code":null,"latitude":null,"longitude":null,"geopoint":null},{"name":"For Art's Sake Media","description":null,"address1":null,"address2":null,"zip_code":null,"city":null,"state_code":null,"country_code":null,"latitude":null,"longitude":null,"geopoint":null},{"name":"SEEDCORE GROUP","description":"","address1":"101\/B, Pranay Sudarshan, M.G.Road","address2":"","zip_code":"400077","city":"Mumbai","state_code":null,"country_code":"IND","latitude":null,"longitude":null,"geopoint":null},{"name":"Zen Web Solutions","description":"Manchester Office","address1":"Sandbrook Park","address2":"Sandbrook Way","zip_code":"OL11 1RY","city":"Rochdale","state_code":null,"country_code":"GBR","latitude":null,"longitude":null,"geopoint":null},{"name":"3biz","description":"head office","address1":"the axis building, maingate","address2":"team valley","zip_code":"ne11 0nq","city":"gateshead","state_code":null,"country_code":"GBR","latitude":null,"longitude":null,"geopoint":null},{"name":"Quantum Voyage","description":"Corporate Office","address1":"2571 Whiteway Ct.","address2":"","zip_code":"60504","city":"Aurora","state_code":"IL","country_code":"USA","latitude":41.746199,"longitude":-88.252334,"geopoint":{"type":"Point","coordinates":[-88.252334,41.746199]}},{"name":"Quantum Voyage","description":"Sales Office","address1":"1237 Stump Rd.","address2":"","zip_code":"19454","city":"Montgomeryville","state_code":"PA","country_code":"USA","latitude":40.248213,"longitude":-75.213827,"geopoint":{"type":"Point","coordinates":[-75.213827,40.248213]}},{"name":"IMDB","description":"","address1":"","address2":"","zip_code":"","city":"Seattle","state_code":"WA","country_code":"USA","latitude":null,"longitude":null,"geopoint":null},{"name":"wiebia","description":"1 office","address1":"20 de octubre Av. #2315, la paz - bolivia","address2":"","zip_code":"0","city":"la paz","state_code":null,"country_code":"BOL","latitude":null,"longitude":null,"geopoint":null},{"name":"Jobmixi","description":"Jobmixi","address1":"KPHB","address2":"","zip_code":"500072","city":"Hyderabad","state_code":null,"country_code":"IND","latitude":17.498081,"longitude":78.389911,"geopoint":{"type":"Point","coordinates":[78.389911,17.498081]}},{"name":"eSchedule","description":"Inglewood Office","address1":"#200 - 1212 9th Avenue SE","address2":"","zip_code":"T2G 0T1","city":"Calgary","state_code":null,"country_code":"CAN","latitude":null,"longitude":null,"geopoint":null},{"name":"OUTSHOUTS","description":"Main Office","address1":"","address2":"","zip_code":"","city":"Menlo Park","state_code":"CA","country_code":"USA","latitude":37.48413,"longitude":-122.169472,"geopoint":{"type":"Point","coordinates":[-122.169472,37.48413]}},{"name":"Alpha SEP","description":null,"address1":null,"address2":null,"zip_code":null,"city":null,"state_code":null,"country_code":null,"latitude":null,"longitude":null,"geopoint":null},{"name":"302designs","description":"Headquarters","address1":"1309 E. 7th Street","address2":"","zip_code":"78702","city":"Austin","state_code":"TX","country_code":"USA","latitude":30.264491,"longitude":-97.728453,"geopoint":{"type":"Point","coordinates":[-97.728453,30.264491]}},{"name":"Designious","description":null,"address1":null,"address2":null,"zip_code":null,"city":null,"state_code":null,"country_code":null,"latitude":null,"longitude":null,"geopoint":null},{"name":"RealScoop","description":null,"address1":null,"address2":null,"zip_code":null,"city":null,"state_code":null,"country_code":null,"latitude":null,"longitude":null,"geopoint":null},{"name":"LotusJump","description":"Headquarters","address1":"898 S. State St. #31","address2":"","zip_code":"84097","city":"Orem","state_code":"UT","country_code":"USA","latitude":40.280712,"longitude":-111.688241,"geopoint":{"type":"Point","coordinates":[-111.688241,40.280712]}},{"name":"M2C2 Communications","description":"","address1":"338 Robin","address2":"","zip_code":"H9W 1R6","city":"Beaconsfield","state_code":null,"country_code":"CAN","latitude":45.4355532,"longitude":-73.8728534,"geopoint":{"type":"Point","coordinates":[-73.8728534,45.4355532]}},{"name":"PocketNumerix","description":"","address1":"","address2":"","zip_code":"","city":"","state_code":null,"country_code":"USA","latitude":null,"longitude":null,"geopoint":null},{"name":"HyperTEK Corporation","description":"Headquarters","address1":"575 E Big Beaver Rd","address2":"Ste 265","zip_code":"48083-1398","city":"Troy","state_code":"MI","country_code":"USA","latitude":42.56349,"longitude":-83.136514,"geopoint":{"type":"Point","coordinates":[-83.136514,42.56349]}},{"name":"WiredRed","description":"Worldwide HQ","address1":"9350 Waxie Way, Ste. 100","address2":"","zip_code":"92123","city":"San Diego","state_code":"CA","country_code":"USA","latitude":32.84014,"longitude":-117.124214,"geopoint":{"type":"Point","coordinates":[-117.124214,32.84014]}},{"name":"WiredRed","description":"European Head Office","address1":"1 Old Market Avenue","address2":"","zip_code":"PO19 1SP","city":"Chichester","state_code":null,"country_code":"GBR","latitude":50.833935,"longitude":-0.779497,"geopoint":{"type":"Point","coordinates":[-0.779497,50.833935]}},{"name":"Moveo","description":"Main Office","address1":"1 Parkview Plaza, Suite 150","address2":"","zip_code":"60181","city":"Oakbrook Terrace","state_code":"CA","country_code":"USA","latitude":41.8499657,"longitude":-87.958697,"geopoint":{"type":"Point","coordinates":[-87.958697,41.8499657]}},{"name":"Outcome3 Media","description":"Main Office","address1":"PO Box 98025","address2":"135 Davie Street","zip_code":"V6Z 2Z7","city":"Vancouver, BC","state_code":null,"country_code":"CAN","latitude":null,"longitude":null,"geopoint":null},{"name":"arth infosoft pvt ltd","description":"","address1":"120,IT Tower-1,Infocity","address2":"","zip_code":"382009","city":"Gandhinagar","state_code":null,"country_code":"IND","latitude":null,"longitude":null,"geopoint":null},{"name":"CSS Rainbow","description":null,"address1":null,"address2":null,"zip_code":null,"city":null,"state_code":null,"country_code":null,"latitude":null,"longitude":null,"geopoint":null},{"name":"DualPage","description":null,"address1":null,"address2":null,"zip_code":null,"city":null,"state_code":null,"country_code":null,"latitude":null,"longitude":null,"geopoint":null},{"name":"Palidia","description":"","address1":"","address2":"","zip_code":"","city":"Ottawa","state_code":null,"country_code":"CAN","latitude":45.423494,"longitude":-75.697933,"geopoint":{"type":"Point","coordinates":[-75.697933,45.423494]}},{"name":"Miracle Labs","description":null,"address1":null,"address2":null,"zip_code":null,"city":null,"state_code":null,"country_code":null,"latitude":null,"longitude":null,"geopoint":null},{"name":"BrushVideo","description":"Brussels","address1":"","address2":"","zip_code":"","city":"","state_code":null,"country_code":"BEL","latitude":null,"longitude":null,"geopoint":null},{"name":"Hoccam","description":"Hoccam.com ODT\u00c3\u0153 Ofisi","address1":"PK.40 ODT\u00c3\u0153","address2":"","zip_code":"06531","city":"Ankara","state_code":null,"country_code":"TUR","latitude":null,"longitude":null,"geopoint":null},{"name":"Sentrigo","description":"HQ","address1":"2620 Augustine Dr","address2":"Suite 145","zip_code":"95054","city":"Santa Clara","state_code":"CA","country_code":"USA","latitude":37.55911,"longitude":-122.303493,"geopoint":{"type":"Point","coordinates":[-122.303493,37.55911]}},{"name":"Sentrigo","description":"North American Sales","address1":"155M New Boston St.","address2":"Suite 130","zip_code":"01801","city":"Woburn","state_code":"MA","country_code":"USA","latitude":42.508719,"longitude":-71.144313,"geopoint":{"type":"Point","coordinates":[-71.144313,42.508719]}},{"name":"Sentrigo","description":"International Sales","address1":"2 Hanagar St.","address2":"PO Box 2340","zip_code":"44425","city":"Kfar Saba","state_code":null,"country_code":"ISR","latitude":null,"longitude":null,"geopoint":null},{"name":"Karmerd","description":"Campbell Office","address1":"350 Budd Ave #E18","address2":"","zip_code":"95008","city":"Campbell","state_code":"CA","country_code":"USA","latitude":37.280584,"longitude":-121.954985,"geopoint":{"type":"Point","coordinates":[-121.954985,37.280584]}},{"name":"Xtreme Widgets","description":"Los Angeles","address1":"4221 Redwood Ave.","address2":"","zip_code":"90066","city":"Los Angeles","state_code":"CA","country_code":"USA","latitude":33.988687,"longitude":-118.439532,"geopoint":{"type":"Point","coordinates":[-118.439532,33.988687]}},{"name":"Bleacher Advisor","description":"Headquarters","address1":"Main Street","address2":"","zip_code":"","city":"Spring Hill","state_code":"FL","country_code":"USA","latitude":28.552044,"longitude":-82.55582,"geopoint":{"type":"Point","coordinates":[-82.55582,28.552044]}},{"name":"Cloudera","description":"HQ","address1":"220 Portage Ave","address2":"","zip_code":"94306","city":"Palo Alto","state_code":"CA","country_code":"USA","latitude":37.5783417,"longitude":-122.3497546,"geopoint":{"type":"Point","coordinates":[-122.3497546,37.5783417]}},{"name":"Montagraph","description":"Home Office","address1":"Kardelen Evleri C2-7, D:30, Atakent Mah. 2.Etap","address2":"Halkal\u00c4\u00b1","zip_code":"","city":"Istanbul","state_code":null,"country_code":"TUR","latitude":null,"longitude":null,"geopoint":null},{"name":"StellarSurvey","description":"","address1":"4481 N Ardmore Ave","address2":"","zip_code":"53211","city":"Milwaukee","state_code":"WI","country_code":"USA","latitude":43.097697,"longitude":-87.895093,"geopoint":{"type":"Point","coordinates":[-87.895093,43.097697]}},{"name":"Klection","description":null,"address1":null,"address2":null,"zip_code":null,"city":null,"state_code":null,"country_code":null,"latitude":null,"longitude":null,"geopoint":null},{"name":"CampusBuddy","description":null,"address1":null,"address2":null,"zip_code":null,"city":null,"state_code":null,"country_code":null,"latitude":null,"longitude":null,"geopoint":null},{"name":"TripyNote","description":null,"address1":null,"address2":null,"zip_code":null,"city":null,"state_code":null,"country_code":null,"latitude":null,"longitude":null,"geopoint":null},{"name":"IntelliProject","description":null,"address1":null,"address2":null,"zip_code":null,"city":null,"state_code":null,"country_code":null,"latitude":null,"longitude":null,"geopoint":null},{"name":"CheapToday","description":null,"address1":null,"address2":null,"zip_code":null,"city":null,"state_code":null,"country_code":null,"latitude":null,"longitude":null,"geopoint":null},{"name":"MechanixLoop","description":"Central Office","address1":"1451 wessyngton","address2":"","zip_code":"30306","city":"Atlanta","state_code":"GA","country_code":"USA","latitude":33.794391,"longitude":-84.355711,"geopoint":{"type":"Point","coordinates":[-84.355711,33.794391]}},{"name":"ReverbNation","description":"ReverbNation HQ","address1":"115 N Duke St.","address2":"Suite 2A","zip_code":"27701","city":"Durham","state_code":"NC","country_code":"USA","latitude":36.002893,"longitude":-78.904075,"geopoint":{"type":"Point","coordinates":[-78.904075,36.002893]}},{"name":"ReverbNation","description":"ReverbNation NYC","address1":"555 8th Ave","address2":"Suite 909","zip_code":"10008","city":"New York","state_code":"NY","country_code":"USA","latitude":40.718888,"longitude":-74.001169,"geopoint":{"type":"Point","coordinates":[-74.001169,40.718888]}},{"name":"friendmee","description":"moonchild media AG","address1":"Im Brauereiviertel 6","address2":"","zip_code":"24118","city":"Kiel","state_code":null,"country_code":"DEU","latitude":54.339238,"longitude":10.1330337,"geopoint":{"type":"Point","coordinates":[10.1330337,54.339238]}},{"name":"SureSpeak","description":"Chicago Office","address1":"29 S Lasalle St","address2":"Suite 1205","zip_code":"60603","city":"Chicago","state_code":"IL","country_code":"USA","latitude":41.889183,"longitude":-87.632519,"geopoint":{"type":"Point","coordinates":[-87.632519,41.889183]}},{"name":"Mobile Factory","description":null,"address1":null,"address2":null,"zip_code":null,"city":null,"state_code":null,"country_code":null,"latitude":null,"longitude":null,"geopoint":null},{"name":"Blog to it","description":"","address1":"","address2":"","zip_code":"","city":"Abergavenny","state_code":null,"country_code":"GBR","latitude":51.824849,"longitude":-3.020908,"geopoint":{"type":"Point","coordinates":[-3.020908,51.824849]}},{"name":"My Shelter Helper","description":null,"address1":null,"address2":null,"zip_code":null,"city":null,"state_code":null,"country_code":null,"latitude":null,"longitude":null,"geopoint":null},{"name":"DailyMarkets","description":"New York Headquarters","address1":"14 Wall St. 20 Fl","address2":"","zip_code":"10005","city":"New York","state_code":"NY","country_code":"USA","latitude":null,"longitude":null,"geopoint":null},{"name":"Instablogs","description":"New York Office","address1":"2152, Ralph Avenue, #525","address2":"","zip_code":"11234","city":"New York","state_code":"NY","country_code":"USA","latitude":40.625269,"longitude":-73.91793,"geopoint":{"type":"Point","coordinates":[-73.91793,40.625269]}},{"name":"Instablogs","description":"Shimla Office","address1":"IT Park, IIIrd Floor, STPI,","address2":"Block No. 24, SDA Complex, Kasumpati","zip_code":"171009","city":"Shimla","state_code":null,"country_code":"IND","latitude":null,"longitude":null,"geopoint":null},{"name":"Instablogs","description":"New Delhi Office","address1":"302, Gupta Arcade, LSC","address2":"Shreshta Vihar","zip_code":"110092","city":"New Delhi","state_code":null,"country_code":"IND","latitude":null,"longitude":null,"geopoint":null},{"name":"A10 Networks","description":"A10 Networks","address1":"3 W Plumeria Drive","address2":"","zip_code":"95134","city":"San Jose","state_code":"CA","country_code":"USA","latitude":37.391198,"longitude":-121.93393,"geopoint":{"type":"Point","coordinates":[-121.93393,37.391198]}},{"name":"Purchance!","description":null,"address1":null,"address2":null,"zip_code":null,"city":null,"state_code":null,"country_code":null,"latitude":null,"longitude":null,"geopoint":null},{"name":"Le Cycling","description":"UK Office","address1":"The Studio","address2":"1 Nederdale Close","zip_code":"TS15 9UE","city":"Yarm","state_code":null,"country_code":"GBR","latitude":null,"longitude":null,"geopoint":null},{"name":"Clubbyclub","description":"Clubbyclub","address1":"Oudwijkerdwarsstraat 106","address2":"","zip_code":"3581LH","city":"Utrecht","state_code":null,"country_code":"NLD","latitude":52.087496,"longitude":5.134585,"geopoint":{"type":"Point","coordinates":[5.134585,52.087496]}},{"name":"bstat","description":null,"address1":null,"address2":null,"zip_code":null,"city":null,"state_code":null,"country_code":null,"latitude":null,"longitude":null,"geopoint":null},{"name":"tinyConvo","description":null,"address1":null,"address2":null,"zip_code":null,"city":null,"state_code":null,"country_code":null,"latitude":null,"longitude":null,"geopoint":null},{"name":"Asyncast Corporation","description":"Headquarters","address1":"901 Campisi Way, Suite 340","address2":"","zip_code":"95008","city":"Campbell","state_code":"CA","country_code":"USA","latitude":37.291228,"longitude":-121.933651,"geopoint":{"type":"Point","coordinates":[-121.933651,37.291228]}},{"name":"GC Marshall","description":"","address1":"222 S. Riverside,","address2":"","zip_code":"60606-5808","city":"Chicago","state_code":"IL","country_code":"USA","latitude":41.8790291,"longitude":-87.6385324,"geopoint":{"type":"Point","coordinates":[-87.6385324,41.8790291]}},{"name":"Paradigm Technologies","description":"US Office","address1":"955 Connecticute Ave","address2":"Suite 4104","zip_code":"06607","city":"Bridgeport","state_code":"CT","country_code":"USA","latitude":41.182155,"longitude":-73.161083,"geopoint":{"type":"Point","coordinates":[-73.161083,41.182155]}},{"name":"WePC","description":"","address1":"C\/O Federated Media","address2":"2 Harrison Street  7th Floor","zip_code":"94110","city":"San Francisco","state_code":"CA","country_code":"USA","latitude":null,"longitude":null,"geopoint":null},{"name":"myclasswiz","description":null,"address1":null,"address2":null,"zip_code":null,"city":null,"state_code":null,"country_code":null,"latitude":null,"longitude":null,"geopoint":null},{"name":"EON Consulting","description":null,"address1":null,"address2":null,"zip_code":null,"city":null,"state_code":null,"country_code":null,"latitude":null,"longitude":null,"geopoint":null},{"name":"GigaShift","description":null,"address1":null,"address2":null,"zip_code":null,"city":null,"state_code":null,"country_code":null,"latitude":null,"longitude":null,"geopoint":null},{"name":"ThisCouldBeHUGE!","description":null,"address1":null,"address2":null,"zip_code":null,"city":null,"state_code":null,"country_code":null,"latitude":null,"longitude":null,"geopoint":null},{"name":"Digital Mint","description":"Headquarters","address1":"Weidstrasse 22","address2":"","zip_code":"6300","city":"Zug","state_code":null,"country_code":"CHE","latitude":47.169157,"longitude":8.528185,"geopoint":{"type":"Point","coordinates":[8.528185,47.169157]}},{"name":"Centro","description":"HQ","address1":"222 W Hubbard St.","address2":"Suite 400","zip_code":"60654","city":"Chicago","state_code":"IL","country_code":"USA","latitude":41.889853,"longitude":-87.6355433,"geopoint":{"type":"Point","coordinates":[-87.6355433,41.889853]}},{"name":"Centro","description":"East","address1":"22 West 21st Street","address2":"Floor 7","zip_code":"10010","city":"New York","state_code":"NY","country_code":"USA","latitude":40.7408753,"longitude":-73.9920174,"geopoint":{"type":"Point","coordinates":[-73.9920174,40.7408753]}},{"name":"Centro","description":"South","address1":"2207 Commerce Street","address2":"","zip_code":"75201","city":"Dallas","state_code":"TX","country_code":"USA","latitude":32.7819239,"longitude":-96.790514,"geopoint":{"type":"Point","coordinates":[-96.790514,32.7819239]}},{"name":"Centro","description":"West","address1":"2500 Broadway Street","address2":"Building F, Suite F-125","zip_code":"90404","city":"Santa Monica","state_code":"CA","country_code":"USA","latitude":34.0312388,"longitude":-118.4735062,"geopoint":{"type":"Point","coordinates":[-118.4735062,34.0312388]}},{"name":"Clearwire","description":"","address1":"4400 Caillon Point","address2":"","zip_code":"98033","city":"Kirkland","state_code":"WA","country_code":"USA","latitude":30.6324797,"longitude":-86.9843446,"geopoint":{"type":"Point","coordinates":[-86.9843446,30.6324797]}},{"name":"clearTXT","description":"","address1":"133 Keybridge Dr","address2":"Suite C","zip_code":"27560","city":"Morrisville","state_code":"NC","country_code":"USA","latitude":35.820365,"longitude":-78.821516,"geopoint":{"type":"Point","coordinates":[-78.821516,35.820365]}},{"name":"Family-Mingle","description":null,"address1":null,"address2":null,"zip_code":null,"city":null,"state_code":null,"country_code":null,"latitude":null,"longitude":null,"geopoint":null},{"name":"TubeSpree","description":"Main Office","address1":"601 Van Ness Ave","address2":"Suite E-112","zip_code":"94102-3200","city":"San Francisco","state_code":"CA","country_code":"USA","latitude":37.781386,"longitude":-122.421406,"geopoint":{"type":"Point","coordinates":[-122.421406,37.781386]}},{"name":"RAM Mobile Data","description":"Office in Belgium","address1":"Excelsiorlaan 50","address2":"","zip_code":"1930","city":"Zaventem","state_code":null,"country_code":"BEL","latitude":50.8827252,"longitude":4.4547855,"geopoint":{"type":"Point","coordinates":[4.4547855,50.8827252]}},{"name":"Aghreni Technologies","description":"India Office","address1":"335 Double Road","address2":"Indiranagar 1st Stage","zip_code":"560038","city":"Bangalore","state_code":null,"country_code":"IND","latitude":12.9561278,"longitude":77.5922642,"geopoint":{"type":"Point","coordinates":[77.5922642,12.9561278]}},{"name":"Aghreni Technologies","description":"USA Office","address1":"246, Fifth Avenue","address2":"Ste. 301","zip_code":"10001","city":"New York","state_code":"NY","country_code":"USA","latitude":40.744549,"longitude":-73.988071,"geopoint":{"type":"Point","coordinates":[-73.988071,40.744549]}},{"name":"fruux","description":"","address1":"","address2":"","zip_code":"48143","city":"Muenster","state_code":null,"country_code":"DEU","latitude":51.9630088,"longitude":7.6267552,"geopoint":{"type":"Point","coordinates":[7.6267552,51.9630088]}},{"name":"Allure Media","description":"","address1":"Level 4","address2":"177-185 William St","zip_code":"2010","city":"Darlinghurst","state_code":null,"country_code":"AUS","latitude":-33.8719926,"longitude":151.1936039,"geopoint":{"type":"Point","coordinates":[151.1936039,-33.8719926]}},{"name":"Avocom","description":"","address1":"Ringvaartstraat 67","address2":"","zip_code":"9820","city":"Merelbeke","state_code":null,"country_code":"BEL","latitude":51.0075781,"longitude":3.7562868,"geopoint":{"type":"Point","coordinates":[3.7562868,51.0075781]}},{"name":"MovieFlix","description":"","address1":"8108 W 4th St.","address2":"","zip_code":"90048","city":"Los Angeles","state_code":"CA","country_code":"USA","latitude":34.070146,"longitude":-118.365526,"geopoint":{"type":"Point","coordinates":[-118.365526,34.070146]}},{"name":"NOM","description":"New York Headquarters","address1":"964 Flushing Ave","address2":"First Floor","zip_code":"11206","city":"Brooklyn","state_code":"NY","country_code":"USA","latitude":40.740672,"longitude":-73.992632,"geopoint":{"type":"Point","coordinates":[-73.992632,40.740672]}},{"name":"NOM","description":"Tokyo Office","address1":"1-23-3 Higashi","address2":"Shibuya-ku","zip_code":"150-011","city":"Tokyo","state_code":null,"country_code":"JPN","latitude":null,"longitude":null,"geopoint":null},{"name":"PharmiWeb Solutions","description":"PharmiWeb Solutions HQ","address1":"Abbey House","address2":"Grenville Place","zip_code":"RG12 1BP","city":"Bracknell","state_code":null,"country_code":"GBR","latitude":null,"longitude":null,"geopoint":null},{"name":"Datacastle","description":"HQ","address1":"719 Second Avenue","address2":"Suite 400","zip_code":"98104","city":"Seattle","state_code":"WA","country_code":"USA","latitude":47.651315,"longitude":-122.3498959,"geopoint":{"type":"Point","coordinates":[-122.3498959,47.651315]}},{"name":"Tourmandu","description":null,"address1":null,"address2":null,"zip_code":null,"city":null,"state_code":null,"country_code":null,"latitude":null,"longitude":null,"geopoint":null},{"name":"CentPoker","description":null,"address1":null,"address2":null,"zip_code":null,"city":null,"state_code":null,"country_code":null,"latitude":null,"longitude":null,"geopoint":null},{"name":"Travel Insights","description":"","address1":"1155 Camino Del Mar","address2":"#530","zip_code":"92014","city":"Del Mar","state_code":"CA","country_code":"USA","latitude":32.9563448,"longitude":-117.2640178,"geopoint":{"type":"Point","coordinates":[-117.2640178,32.9563448]}},{"name":"Pacific Virtual Tours","description":"HEADQUARTERS","address1":"#47-19551 66 Ave","address2":"","zip_code":"V4N0Z5","city":"Surrey","state_code":null,"country_code":"CAN","latitude":49.1237099,"longitude":-122.6830008,"geopoint":{"type":"Point","coordinates":[-122.6830008,49.1237099]}},{"name":"InnovSoft Consulting Limited","description":"Canada","address1":"3860 Notre Dame","address2":"Suite 304","zip_code":"H7V 1S1","city":"Laval","state_code":null,"country_code":"CAN","latitude":45.5411602,"longitude":-73.7481222,"geopoint":{"type":"Point","coordinates":[-73.7481222,45.5411602]}},{"name":"MyVishwa","description":"MyVishwa","address1":"104 Kingston Way","address2":"","zip_code":"19454","city":"North Wales","state_code":"PA","country_code":"USA","latitude":40.247314,"longitude":-75.2023361,"geopoint":{"type":"Point","coordinates":[-75.2023361,40.247314]}},{"name":"Storenvy","description":"Storenvy HQ","address1":"2111 Mission St","address2":"Ste 400","zip_code":"94110","city":"San Francisco","state_code":"CA","country_code":"USA","latitude":null,"longitude":null,"geopoint":null},{"name":"OpenText","description":"Headquarter","address1":"275 Frank Tompa Dr","address2":"","zip_code":"N2L 0A1","city":"Waterloo, ON","state_code":null,"country_code":"CAN","latitude":null,"longitude":null,"geopoint":null},{"name":"Mortgages and Loans Ireland","description":"St. Paul's Church","address1":"North King Street","address2":"Blackhall Place","zip_code":"D7","city":"Dublin","state_code":null,"country_code":"IRL","latitude":53.3498195,"longitude":-6.2769121,"geopoint":{"type":"Point","coordinates":[-6.2769121,53.3498195]}},{"name":"SmartCrowds","description":"Headquarters","address1":"","address2":"","zip_code":"560064","city":"Bangalore","state_code":null,"country_code":"IND","latitude":12.5153051,"longitude":78.2221144,"geopoint":{"type":"Point","coordinates":[78.2221144,12.5153051]}},{"name":"Agily Networks","description":"Main office","address1":"3031 Tisch way","address2":"suite 700","zip_code":"95128","city":"San Jose","state_code":"CA","country_code":"USA","latitude":37.317799,"longitude":-121.947497,"geopoint":{"type":"Point","coordinates":[-121.947497,37.317799]}},{"name":"Zootool","description":"Headquarters","address1":"Wiesenbl\u00c3\u00a4ttchen 6","address2":"","zip_code":"68723","city":"Schwetzingen","state_code":null,"country_code":"DEU","latitude":null,"longitude":null,"geopoint":null},{"name":"DailyBread 365","description":null,"address1":null,"address2":null,"zip_code":null,"city":null,"state_code":null,"country_code":null,"latitude":null,"longitude":null,"geopoint":null},{"name":"ZingSale","description":"","address1":"655 Fifth Street","address2":"#12","zip_code":"94107","city":"San Francisco","state_code":"CA","country_code":"USA","latitude":32.718834,"longitude":-117.163841,"geopoint":{"type":"Point","coordinates":[-117.163841,32.718834]}},{"name":"Fanminder","description":"Headquarters","address1":"625 Second Street","address2":"Suite 280","zip_code":"94107","city":"San Francisco","state_code":"CA","country_code":"USA","latitude":37.3792486,"longitude":-122.1151274,"geopoint":{"type":"Point","coordinates":[-122.1151274,37.3792486]}},{"name":"Campusbooks4less","description":null,"address1":null,"address2":null,"zip_code":null,"city":null,"state_code":null,"country_code":null,"latitude":null,"longitude":null,"geopoint":null},{"name":"Blue Parabola","description":"Headquarters","address1":"","address2":"","zip_code":"","city":"Toronto","state_code":null,"country_code":"CAN","latitude":43.670233,"longitude":-79.386755,"geopoint":{"type":"Point","coordinates":[-79.386755,43.670233]}},{"name":"Pinota","description":"Internation","address1":"","address2":"","zip_code":"","city":"Vancouver","state_code":null,"country_code":"CAN","latitude":49.263588,"longitude":-123.138565,"geopoint":{"type":"Point","coordinates":[-123.138565,49.263588]}},{"name":"Meijob","description":null,"address1":null,"address2":null,"zip_code":null,"city":null,"state_code":null,"country_code":null,"latitude":null,"longitude":null,"geopoint":null},{"name":"CastClick Network","description":null,"address1":null,"address2":null,"zip_code":null,"city":null,"state_code":null,"country_code":null,"latitude":null,"longitude":null,"geopoint":null},{"name":"PentaTonic Networks","description":null,"address1":null,"address2":null,"zip_code":null,"city":null,"state_code":null,"country_code":null,"latitude":null,"longitude":null,"geopoint":null},{"name":"The Bid Zone","description":null,"address1":null,"address2":null,"zip_code":null,"city":null,"state_code":null,"country_code":null,"latitude":null,"longitude":null,"geopoint":null},{"name":"Revelation","description":"","address1":"1200 NW Naito Parkway","address2":"Suite 630","zip_code":"97209","city":"Portland","state_code":"OR","country_code":"USA","latitude":45.504407,"longitude":-122.655545,"geopoint":{"type":"Point","coordinates":[-122.655545,45.504407]}},{"name":"Broadband Comparison Limited","description":"","address1":"Carnaby House,","address2":"37 Marshall Street ,Soho,","zip_code":"W1F 7EZ","city":"London","state_code":null,"country_code":"GBR","latitude":null,"longitude":null,"geopoint":null},{"name":"Zeraphina","description":"Zeraphina","address1":"40 The Mews","address2":"Kingram Place","zip_code":"D2","city":"Dublin","state_code":null,"country_code":"IRL","latitude":53.4445927,"longitude":-6.1345865,"geopoint":{"type":"Point","coordinates":[-6.1345865,53.4445927]}},{"name":"Agentka","description":"Prague Office","address1":"Pospisilova 5","address2":"","zip_code":"13000","city":"Prague","state_code":null,"country_code":"CZE","latitude":50.0809075,"longitude":14.4496124,"geopoint":{"type":"Point","coordinates":[14.4496124,50.0809075]}},{"name":"Zumbox","description":"Headquarters","address1":"222 N. Sepulveda, Blvd. Suite 1514","address2":"","zip_code":"90245","city":"Los Angeles","state_code":"CA","country_code":"USA","latitude":null,"longitude":null,"geopoint":null},{"name":"Frontware International","description":"Bangkok","address1":"Town-in-Town Latprao 94","address2":"Wanthglong","zip_code":"10310","city":"bangkok","state_code":null,"country_code":"THA","latitude":null,"longitude":null,"geopoint":null},{"name":"Statix TV","description":"","address1":"735 Emerson Street","address2":"","zip_code":"94301","city":"Palo Alto","state_code":"CA","country_code":"USA","latitude":37.443,"longitude":-122.159291,"geopoint":{"type":"Point","coordinates":[-122.159291,37.443]}},{"name":"VisionWang","description":"","address1":"","address2":"","zip_code":"","city":"Hartford","state_code":"CT","country_code":"USA","latitude":41.766467,"longitude":-72.673165,"geopoint":{"type":"Point","coordinates":[-72.673165,41.766467]}},{"name":"VisionWang","description":"","address1":"","address2":"","zip_code":"","city":"Beijing","state_code":null,"country_code":"CHN","latitude":39.9081726,"longitude":116.3979471,"geopoint":{"type":"Point","coordinates":[116.3979471,39.9081726]}},{"name":"Magna Techa","description":null,"address1":null,"address2":null,"zip_code":null,"city":null,"state_code":null,"country_code":null,"latitude":null,"longitude":null,"geopoint":null},{"name":"Discogs","description":null,"address1":null,"address2":null,"zip_code":null,"city":null,"state_code":null,"country_code":null,"latitude":null,"longitude":null,"geopoint":null},{"name":"AirAppz","description":"Ireland","address1":"Waterloo Lodge","address2":"Coolbawn","zip_code":"0000","city":"Nenagh, Co. Tipperary","state_code":null,"country_code":"IRL","latitude":null,"longitude":null,"geopoint":null},{"name":"Elevate Visual Communications","description":"Nebraska Office","address1":"1395 N. Adams Central Ave","address2":"","zip_code":"68955","city":"Juniata","state_code":"NE","country_code":"USA","latitude":40.599303,"longitude":-98.4588465,"geopoint":{"type":"Point","coordinates":[-98.4588465,40.599303]}},{"name":"Elevate Visual Communications","description":"Alabama Office","address1":"318 Monroe Ave","address2":"","zip_code":"35661","city":"Muscle Shoals","state_code":"AL","country_code":"USA","latitude":34.733994,"longitude":-87.6306144,"geopoint":{"type":"Point","coordinates":[-87.6306144,34.733994]}},{"name":"Club Cooee","description":"Headquarter","address1":"Europaallee 20","address2":"","zip_code":"67657","city":"Kaiserslautern","state_code":null,"country_code":"DEU","latitude":49.462574,"longitude":7.6934194,"geopoint":{"type":"Point","coordinates":[7.6934194,49.462574]}},{"name":"Zykis","description":"Irvine Headquarters","address1":"15231 Alton PRKW #200","address2":"","zip_code":"92618","city":"Irvine","state_code":"CA","country_code":"USA","latitude":33.6483927,"longitude":-117.7327421,"geopoint":{"type":"Point","coordinates":[-117.7327421,33.6483927]}},{"name":"givezooks!","description":"","address1":"402 E. Gutierrez St.","address2":"","zip_code":"93101","city":"Santa Barbara","state_code":"CA","country_code":"USA","latitude":34.420316,"longitude":-119.688412,"geopoint":{"type":"Point","coordinates":[-119.688412,34.420316]}},{"name":"Circle of Moms","description":"HQ","address1":"118 2nd St Fl 2","address2":"","zip_code":"94105-3620","city":"San Francisco","state_code":"CA","country_code":"USA","latitude":37.7890183,"longitude":-122.3915063,"geopoint":{"type":"Point","coordinates":[-122.3915063,37.7890183]}},{"name":"You Are Truly Loved","description":null,"address1":null,"address2":null,"zip_code":null,"city":null,"state_code":null,"country_code":null,"latitude":null,"longitude":null,"geopoint":null},{"name":"AdSource Tracker","description":"","address1":"3798 Westwood Road","address2":"","zip_code":"44118","city":"Cleveland","state_code":"OH","country_code":"USA","latitude":41.498242,"longitude":-81.543828,"geopoint":{"type":"Point","coordinates":[-81.543828,41.498242]}},{"name":"iFrat Wars","description":null,"address1":null,"address2":null,"zip_code":null,"city":null,"state_code":null,"country_code":null,"latitude":null,"longitude":null,"geopoint":null},{"name":"Enercient Systems Technologies","description":"Headquarters","address1":"6339 Ten Oaks Road","address2":"Suite 301","zip_code":"21029","city":"Clarksville","state_code":"MD","country_code":"USA","latitude":null,"longitude":null,"geopoint":null},{"name":"Forces Reunited","description":"Office","address1":"Marsh Farm","address2":"","zip_code":"BA147PJ","city":"Hilperton","state_code":null,"country_code":"GBR","latitude":null,"longitude":null,"geopoint":null},{"name":"Mapalia","description":"Mapalia","address1":"Edificio Ilgner, C8","address2":"","zip_code":"48902","city":"Barakaldo","state_code":null,"country_code":"ESP","latitude":null,"longitude":null,"geopoint":null},{"name":"CommitX","description":null,"address1":null,"address2":null,"zip_code":null,"city":null,"state_code":null,"country_code":null,"latitude":null,"longitude":null,"geopoint":null},{"name":"Coveroo","description":"Headquarters","address1":"1000 Brannan Street","address2":"Suite 100","zip_code":"94103","city":"San Francisco","state_code":"CA","country_code":"USA","latitude":37.770067,"longitude":-122.407603,"geopoint":{"type":"Point","coordinates":[-122.407603,37.770067]}},{"name":"Writer4me","description":"Head Office","address1":"9\/1 Motijheel Avenue","address2":"","zip_code":"700074","city":"Kolkata","state_code":null,"country_code":"IND","latitude":null,"longitude":null,"geopoint":null},{"name":"Test of Time Design","description":"Main Office","address1":"2657 Wisconsin Ave.","address2":"","zip_code":"50317","city":"Des Moines","state_code":"IA","country_code":"USA","latitude":41.615468,"longitude":-93.564954,"geopoint":{"type":"Point","coordinates":[-93.564954,41.615468]}},{"name":"Net Root Integrated Services","description":"Head Office","address1":"2, Theodosiou Str. & 29 Petroupoleos Av.","address2":"","zip_code":"13121","city":"Ilion, Attica","state_code":null,"country_code":"GRC","latitude":null,"longitude":null,"geopoint":null},{"name":"ReachForce","description":"ReachForce HQ","address1":"9020-I Capital of TX Hwy N","address2":"Suite 270","zip_code":"78759","city":"Austin","state_code":"TX","country_code":"USA","latitude":30.389042,"longitude":-97.756264,"geopoint":{"type":"Point","coordinates":[-97.756264,30.389042]}},{"name":"The Lost Jacket","description":"","address1":"","address2":"","zip_code":"","city":"Boston","state_code":"MA","country_code":"USA","latitude":42.35892,"longitude":-71.05781,"geopoint":{"type":"Point","coordinates":[-71.05781,42.35892]}},{"name":"Procedural","description":"Zurich Office","address1":"Technoparkstrasse 1","address2":"","zip_code":"8005","city":"Zurich","state_code":null,"country_code":"CHE","latitude":null,"longitude":null,"geopoint":null},{"name":"Lambda Solutions","description":"Head Office","address1":"321 Water Street","address2":"Suite 350","zip_code":"V6B 1B8","city":"Vancouver, BC","state_code":null,"country_code":"CAN","latitude":49.2843936,"longitude":-123.1092622,"geopoint":{"type":"Point","coordinates":[-123.1092622,49.2843936]}},{"name":"GIM Geomatics","description":"Cantabria Office","address1":"C\/ Poeta Jos\u00c3\u00a9 Lu\u00c3\u00ads Hidalgo, 5","address2":"Con frente a Calle Jes\u00c3\u00bas Cancio","zip_code":"39470","city":"Torrelavega","state_code":null,"country_code":"ESP","latitude":43.3492183,"longitude":-4.0551649,"geopoint":{"type":"Point","coordinates":[-4.0551649,43.3492183]}},{"name":"eBillme","description":"Head office","address1":"800 Westchester Ave.,","address2":"Suite N309","zip_code":"10573","city":"Rye Brook","state_code":"NY","country_code":"USA","latitude":null,"longitude":null,"geopoint":null},{"name":"Himshilp","description":"U.K. Contact Address","address1":"Himshilp,17 E, Wellspring Crescent.","address2":"Wembley,","zip_code":"","city":"Middlesex","state_code":null,"country_code":"GBR","latitude":null,"longitude":null,"geopoint":null},{"name":"Wink Bill","description":null,"address1":null,"address2":null,"zip_code":null,"city":null,"state_code":null,"country_code":null,"latitude":null,"longitude":null,"geopoint":null},{"name":"Rudder","description":"Rudder","address1":"3939 Essex Lane","address2":"Suite 190","zip_code":"77027","city":"Houston","state_code":"TX","country_code":"USA","latitude":29.739322,"longitude":-95.444747,"geopoint":{"type":"Point","coordinates":[-95.444747,29.739322]}},{"name":"FlightStats","description":"Headquarters","address1":"522 SW 5th Avenue","address2":"Suite 200","zip_code":"97204","city":"Portland","state_code":"OR","country_code":"USA","latitude":45.519154,"longitude":-122.675428,"geopoint":{"type":"Point","coordinates":[-122.675428,45.519154]}},{"name":"Radha Krishna Portal","description":"","address1":"F-54, Green Park Main","address2":"","zip_code":"110016","city":"New Delhi","state_code":null,"country_code":"IND","latitude":28.5796419,"longitude":77.1959816,"geopoint":{"type":"Point","coordinates":[77.1959816,28.5796419]}},{"name":"Why Hasn't He?","description":"New York City","address1":"601 W. 57th Street","address2":"","zip_code":"10019","city":"New York City","state_code":"NY","country_code":"USA","latitude":40.7703479,"longitude":-73.9914834,"geopoint":{"type":"Point","coordinates":[-73.9914834,40.7703479]}},{"name":"Bonzobox","description":null,"address1":null,"address2":null,"zip_code":null,"city":null,"state_code":null,"country_code":null,"latitude":null,"longitude":null,"geopoint":null},{"name":"aBetterOffice","description":"HQ","address1":"348 E Main Street","address2":"","zip_code":"40507","city":"Lexington","state_code":"KY","country_code":"USA","latitude":38.0421,"longitude":-84.4921985,"geopoint":{"type":"Point","coordinates":[-84.4921985,38.0421]}},{"name":"Did it Leak","description":"Canada headquarters","address1":"598 Smithe","address2":"","zip_code":"","city":"Vancouver","state_code":null,"country_code":"CAN","latitude":49.27964,"longitude":-123.1204046,"geopoint":{"type":"Point","coordinates":[-123.1204046,49.27964]}},{"name":"Did it Leak","description":"UK headquarters","address1":"","address2":"","zip_code":"","city":"Belfast","state_code":null,"country_code":"GBR","latitude":54.5972686,"longitude":-5.9301088,"geopoint":{"type":"Point","coordinates":[-5.9301088,54.5972686]}},{"name":"Did it Leak","description":"Brazil Correspondence","address1":"","address2":"","zip_code":"","city":"Salo Paulo","state_code":null,"country_code":"BRA","latitude":-23.5489433,"longitude":-46.6388182,"geopoint":{"type":"Point","coordinates":[-46.6388182,-23.5489433]}},{"name":"BCG Attorney Search","description":"BCG Attorney Search","address1":"445 Park Ave","address2":"Fl 9","zip_code":"10022","city":"New York","state_code":"NY","country_code":"USA","latitude":34.1428388,"longitude":-118.1323783,"geopoint":{"type":"Point","coordinates":[-118.1323783,34.1428388]}},{"name":"Userspots","description":"","address1":"ODT\u00c3\u0153 Teknokent","address2":"","zip_code":"06520","city":"Ankara","state_code":null,"country_code":"TUR","latitude":39.898894,"longitude":32.774928,"geopoint":{"type":"Point","coordinates":[32.774928,39.898894]}},{"name":"CookEatShare","description":"","address1":"1209 Eaton Ave. Suite 2","address2":"","zip_code":"94070","city":"San Carlos","state_code":"CA","country_code":"USA","latitude":37.492963,"longitude":-122.245522,"geopoint":{"type":"Point","coordinates":[-122.245522,37.492963]}},{"name":"Wellesley Media","description":"Mailing Address","address1":"Wellesley Media","address2":"PO BOX 812584","zip_code":"02482","city":"Wellesley","state_code":"MA","country_code":"USA","latitude":null,"longitude":null,"geopoint":null},{"name":"Slexy","description":null,"address1":null,"address2":null,"zip_code":null,"city":null,"state_code":null,"country_code":null,"latitude":null,"longitude":null,"geopoint":null},{"name":"Convate Consultancy Services  Private Ltd","description":"Convate","address1":"2nd Floor,Above Spencer's(Opp.Kempfort),","address2":"Murugeshpalya,     Airport Road,","zip_code":"560030","city":"bangalore","state_code":"KS","country_code":"IND","latitude":null,"longitude":null,"geopoint":null},{"name":"Koffeeware","description":"","address1":"91b rue des Romains","address2":"","zip_code":"67000","city":"Strasbourg","state_code":null,"country_code":"FRA","latitude":48.590757,"longitude":7.7521091,"geopoint":{"type":"Point","coordinates":[7.7521091,48.590757]}},{"name":"Better Place","description":"Better Place Palo Alto","address1":"1070 Arastradero Road,","address2":"Suite 220","zip_code":"94304","city":"Palo Alto","state_code":"CA","country_code":"USA","latitude":37.3949615,"longitude":-122.1425097,"geopoint":{"type":"Point","coordinates":[-122.1425097,37.3949615]}},{"name":"LiveVox","description":"HQ","address1":"450 Sansome Street,","address2":"Suite 900","zip_code":"94111","city":"San Francisco","state_code":"CA","country_code":"USA","latitude":37.794643,"longitude":-122.401144,"geopoint":{"type":"Point","coordinates":[-122.401144,37.794643]}},{"name":"LiveVox","description":"","address1":"#36, \u201cCrown Point","address2":"2nd Floor Lavelle Road","zip_code":"560-001","city":"Bangalore","state_code":null,"country_code":"IND","latitude":null,"longitude":null,"geopoint":null},{"name":"Core Creative Group","description":null,"address1":null,"address2":null,"zip_code":null,"city":null,"state_code":null,"country_code":null,"latitude":null,"longitude":null,"geopoint":null},{"name":"C2G","description":"","address1":"","address2":"","zip_code":"22066","city":"Great Falls","state_code":"VA","country_code":"USA","latitude":39.012377,"longitude":-77.293817,"geopoint":{"type":"Point","coordinates":[-77.293817,39.012377]}},{"name":"WhosTalkin?","description":null,"address1":null,"address2":null,"zip_code":null,"city":null,"state_code":null,"country_code":null,"latitude":null,"longitude":null,"geopoint":null},{"name":"AuditConfirmations","description":null,"address1":null,"address2":null,"zip_code":null,"city":null,"state_code":null,"country_code":null,"latitude":null,"longitude":null,"geopoint":null},{"name":"Top Blank","description":null,"address1":null,"address2":null,"zip_code":null,"city":null,"state_code":null,"country_code":null,"latitude":null,"longitude":null,"geopoint":null},{"name":"Infor","description":"HQ","address1":"641 Avenue of the Americas","address2":"","zip_code":"10011","city":"New York","state_code":"NY","country_code":"USA","latitude":40.740976,"longitude":-73.9947229,"geopoint":{"type":"Point","coordinates":[-73.9947229,40.740976]}},{"name":"Scotster","description":null,"address1":null,"address2":null,"zip_code":null,"city":null,"state_code":null,"country_code":null,"latitude":null,"longitude":null,"geopoint":null},{"name":"PC Handyman","description":"Australia","address1":"PO Box 667","address2":"","zip_code":"2780","city":"Katoomba","state_code":null,"country_code":"AUS","latitude":-33.714043,"longitude":150.311589,"geopoint":{"type":"Point","coordinates":[150.311589,-33.714043]}},{"name":"The DailyDust","description":"London Office","address1":"2nd Floor","address2":"145-157 St Johns Street","zip_code":"EC1V 4PY","city":"London","state_code":null,"country_code":"GBR","latitude":null,"longitude":null,"geopoint":null},{"name":"Pixel Spills","description":"The Hole","address1":"","address2":"","zip_code":"83001","city":"Jackson","state_code":"WY","country_code":"USA","latitude":43.479618,"longitude":-110.762347,"geopoint":{"type":"Point","coordinates":[-110.762347,43.479618]}},{"name":"Soovle","description":"World Headquarters","address1":"","address2":"","zip_code":"","city":"San Jose","state_code":"CA","country_code":"USA","latitude":37.320052,"longitude":-121.877636,"geopoint":{"type":"Point","coordinates":[-121.877636,37.320052]}},{"name":"Ask500People","description":null,"address1":null,"address2":null,"zip_code":null,"city":null,"state_code":null,"country_code":null,"latitude":null,"longitude":null,"geopoint":null},{"name":"BibleWiki","description":null,"address1":null,"address2":null,"zip_code":null,"city":null,"state_code":null,"country_code":null,"latitude":null,"longitude":null,"geopoint":null},{"name":"ScaleMP","description":"","address1":"20863 Stevens Creek Blvd.","address2":"Suite 275","zip_code":"95014","city":"Cupertino","state_code":"CA","country_code":"USA","latitude":37.3229727,"longitude":-122.0385792,"geopoint":{"type":"Point","coordinates":[-122.0385792,37.3229727]}},{"name":"Pictela","description":"Pictela New York","address1":"770 Broadway","address2":"","zip_code":"10003","city":"New York","state_code":"NY","country_code":"USA","latitude":40.756054,"longitude":-73.986951,"geopoint":{"type":"Point","coordinates":[-73.986951,40.756054]}},{"name":"Quality Web Solutions","description":"Kolkata Office","address1":"Y8, Block - EP, Sector V","address2":"Salt Lake","zip_code":"700091","city":"Kolkata","state_code":null,"country_code":"IND","latitude":null,"longitude":null,"geopoint":null},{"name":"Veeda","description":"Tel Aviv","address1":"","address2":"","zip_code":"","city":"Tel Aviv","state_code":null,"country_code":"ISR","latitude":32.0554,"longitude":34.7595,"geopoint":{"type":"Point","coordinates":[34.7595,32.0554]}},{"name":"Corkin","description":"","address1":"19360 Rinaldi St.","address2":"Suite 186","zip_code":"91326","city":"Porter Ranch","state_code":"CA","country_code":"USA","latitude":34.2748055,"longitude":-118.5560776,"geopoint":{"type":"Point","coordinates":[-118.5560776,34.2748055]}},{"name":"Deal A Day","description":"Head Office","address1":"P O Box 17175","address2":"Greenlane","zip_code":"1546","city":"Auckland","state_code":null,"country_code":"NZL","latitude":-36.881637,"longitude":174.730852,"geopoint":{"type":"Point","coordinates":[174.730852,-36.881637]}},{"name":"SEO Topper","description":"SEOTopper","address1":"Ahmedabad","address2":"","zip_code":"380062","city":"Ahmedabad","state_code":null,"country_code":"IND","latitude":22.9664925,"longitude":72.6667109,"geopoint":{"type":"Point","coordinates":[72.6667109,22.9664925]}},{"name":"Team Forrest","description":null,"address1":null,"address2":null,"zip_code":null,"city":null,"state_code":null,"country_code":null,"latitude":null,"longitude":null,"geopoint":null},{"name":"SekiNdo","description":"Headquarters","address1":"Bloch 14 st.","address2":"","zip_code":"","city":"Tel Aviv","state_code":null,"country_code":"ISR","latitude":null,"longitude":null,"geopoint":null},{"name":"SparkBase","description":"World Headquarters","address1":"3615 Superior Ave","address2":"Building 44, 4th Floor","zip_code":"44114","city":"Cleveland","state_code":"OH","country_code":"USA","latitude":41.513652,"longitude":-81.666101,"geopoint":{"type":"Point","coordinates":[-81.666101,41.513652]}},{"name":"Blellow","description":"Blellow","address1":"918 S Alamo","address2":"","zip_code":"78205","city":"San Antonio","state_code":"TX","country_code":"USA","latitude":29.414897,"longitude":-98.48972,"geopoint":{"type":"Point","coordinates":[-98.48972,29.414897]}},{"name":"Rozdoum","description":"Development Office","address1":"","address2":"","zip_code":"61001","city":"Kharkiv","state_code":null,"country_code":"UKR","latitude":null,"longitude":null,"geopoint":null},{"name":"Vidium","description":"Office","address1":"Madrid 102 4\u00c2\u00baB","address2":"","zip_code":"28902","city":"Getafe","state_code":null,"country_code":"ESP","latitude":null,"longitude":null,"geopoint":null},{"name":"citiservi","description":"citiservi Madrid","address1":"Barquillo 11, 4th Floor","address2":"","zip_code":"ES-28045","city":"Madrid","state_code":null,"country_code":"ESP","latitude":null,"longitude":null,"geopoint":null},{"name":"citiservi","description":"citiservi Bilbao","address1":"Avda. Altos Hornos de Vizcaya 33","address2":"","zip_code":"ES-48902","city":"Barakaldo","state_code":null,"country_code":"ESP","latitude":null,"longitude":null,"geopoint":null},{"name":"citiservi","description":"citiservi USA","address1":"1818 Market St. \u2013 Suite 3310","address2":"","zip_code":"19103","city":"Philadelphia","state_code":"PA","country_code":"USA","latitude":null,"longitude":null,"geopoint":null},{"name":"Unkasoft Advergaming","description":"Madrid Office (marketing)","address1":"Nieremberg 8, Bajo A","address2":"","zip_code":"28002","city":"Madrid","state_code":null,"country_code":"ESP","latitude":40.4474363,"longitude":-3.6714915,"geopoint":{"type":"Point","coordinates":[-3.6714915,40.4474363]}},{"name":"Unkasoft Advergaming","description":"London Office (sales)","address1":"The Arc City 89","address2":"Worship Street","zip_code":"EC2A 2BF","city":"London","state_code":null,"country_code":"GBR","latitude":null,"longitude":null,"geopoint":null},{"name":"Unkasoft Advergaming","description":"Salamanca Office","address1":"Parque Cientifico M2, camino gudino sn","address2":"","zip_code":"37185","city":"Villamayor","state_code":null,"country_code":"ESP","latitude":41.0016627,"longitude":-5.6937933,"geopoint":{"type":"Point","coordinates":[-5.6937933,41.0016627]}},{"name":"Geelbe","description":"Bogot\u00e1","address1":"","address2":"","zip_code":"","city":"Bogot\u00e1","state_code":null,"country_code":"COL","latitude":4.5980556,"longitude":-74.0758333,"geopoint":{"type":"Point","coordinates":[-74.0758333,4.5980556]}},{"name":"Reality Jockey","description":"","address1":"Reality Jockey","address2":"Hilkat 146","zip_code":"6847","city":"Bizau","state_code":null,"country_code":"AUT","latitude":null,"longitude":null,"geopoint":null},{"name":"CondoGala","description":null,"address1":null,"address2":null,"zip_code":null,"city":null,"state_code":null,"country_code":null,"latitude":null,"longitude":null,"geopoint":null},{"name":"FutureScape International","description":"Headquarters","address1":"Innere Wiener Str. 60\/V","address2":"","zip_code":"D-81667","city":"Munich","state_code":null,"country_code":"DEU","latitude":48.1348874,"longitude":11.5975922,"geopoint":{"type":"Point","coordinates":[11.5975922,48.1348874]}},{"name":"About Me!","description":"HQ","address1":"2601 Mission St,","address2":"#900,","zip_code":"94110","city":"","state_code":"CA","country_code":"USA","latitude":37.755068,"longitude":-122.418026,"geopoint":{"type":"Point","coordinates":[-122.418026,37.755068]}},{"name":"gooseGrade","description":null,"address1":null,"address2":null,"zip_code":null,"city":null,"state_code":null,"country_code":null,"latitude":null,"longitude":null,"geopoint":null},{"name":"DuneNetworks","description":"Headquarters","address1":"710 Lakeway Dr., Suite 265","address2":"","zip_code":"94085","city":"Sunnyvale","state_code":"CA","country_code":"USA","latitude":37.386774,"longitude":-121.987661,"geopoint":{"type":"Point","coordinates":[-121.987661,37.386774]}},{"name":"MediaPhy","description":"","address1":"180 Rose Orchard Way","address2":"Suite 100","zip_code":"95134","city":"San Jose","state_code":"CA","country_code":"USA","latitude":37.41668,"longitude":-121.949456,"geopoint":{"type":"Point","coordinates":[-121.949456,37.41668]}},{"name":"DAEDALUS - Data, Decisions and Language","description":"Headquarters","address1":"Lopez de Hoyos 15","address2":"","zip_code":"28006","city":"Madrid","state_code":null,"country_code":"ESP","latitude":40.4372542,"longitude":-3.6866654,"geopoint":{"type":"Point","coordinates":[-3.6866654,40.4372542]}},{"name":"DAEDALUS - Data, Decisions and Language","description":"Technical Department","address1":"Edificio Vallausa II","address2":"Avenida de La Albufera 321","zip_code":"28031","city":"Madrid","state_code":null,"country_code":"ESP","latitude":null,"longitude":null,"geopoint":null},{"name":"StuVu","description":null,"address1":null,"address2":null,"zip_code":null,"city":null,"state_code":null,"country_code":null,"latitude":null,"longitude":null,"geopoint":null},{"name":"National Association of Professional Women","description":"Corporate Office","address1":"1325 Franklin Avenue","address2":"Suite 160","zip_code":"11530","city":"Garden City","state_code":"NY","country_code":"USA","latitude":40.7349884,"longitude":-73.637714,"geopoint":{"type":"Point","coordinates":[-73.637714,40.7349884]}},{"name":"HealthLok","description":"HQ","address1":"","address2":"","zip_code":"68154","city":"Omaha","state_code":"NE","country_code":"USA","latitude":41.264624,"longitude":-96.1049958,"geopoint":{"type":"Point","coordinates":[-96.1049958,41.264624]}},{"name":"Niggle","description":"","address1":"62 Vale Farm Road","address2":"","zip_code":"GU21 6DP","city":"Woking, Surrey","state_code":null,"country_code":"GBR","latitude":51.3181075,"longitude":-0.565758,"geopoint":{"type":"Point","coordinates":[-0.565758,51.3181075]}},{"name":"Civolution","description":"London Office","address1":"52-58 Shorts Gardens","address2":"","zip_code":"WC2H 9AN","city":"London","state_code":null,"country_code":"GBR","latitude":51.514653,"longitude":-0.1253299,"geopoint":{"type":"Point","coordinates":[-0.1253299,51.514653]}},{"name":"Civolution","description":"Eindhoven Office (HQ)","address1":"High Tech Campus 48","address2":"","zip_code":"5656 AE","city":"Eindhoven","state_code":null,"country_code":"NLD","latitude":51.410857,"longitude":5.4573292,"geopoint":{"type":"Point","coordinates":[5.4573292,51.410857]}},{"name":"Civolution","description":"New York Office","address1":"601 W. 26th Street \u00e2\u20ac\u201c Suite 1646","address2":"","zip_code":"10001","city":"New York","state_code":"NY","country_code":"USA","latitude":40.7510131,"longitude":-74.0061454,"geopoint":{"type":"Point","coordinates":[-74.0061454,40.7510131]}},{"name":"Gladinet","description":"Gladinet","address1":"6750 North Andrews Ave","address2":"Suite 200","zip_code":"33309","city":"Fort Lauderdale","state_code":"FL","country_code":"USA","latitude":26.208864,"longitude":-80.140586,"geopoint":{"type":"Point","coordinates":[-80.140586,26.208864]}},{"name":"Time America","description":"Main Office","address1":"15990 N. Greenway-Hayden Loop","address2":"Suite D-500","zip_code":"85260","city":"Scottsdale","state_code":"AZ","country_code":"USA","latitude":33.631797,"longitude":-111.910107,"geopoint":{"type":"Point","coordinates":[-111.910107,33.631797]}},{"name":"Localphone","description":"Head Office","address1":"4 Paradise Street","address2":"","zip_code":"S1 2DF","city":"Sheffield","state_code":null,"country_code":"GBR","latitude":53.3839456,"longitude":-1.470047,"geopoint":{"type":"Point","coordinates":[-1.470047,53.3839456]}},{"name":"Localphone","description":"US Office","address1":"7450 Dr Phillips Blvd","address2":"Suite 314","zip_code":"32819","city":"Orlando","state_code":"FL","country_code":"USA","latitude":null,"longitude":null,"geopoint":null},{"name":"Technology In Ministry","description":"Headquarters","address1":"","address2":"","zip_code":"","city":"","state_code":"IL","country_code":"USA","latitude":null,"longitude":null,"geopoint":null},{"name":"Milabra","description":"","address1":"220 Fifth Ave.","address2":"20th floor","zip_code":"10001","city":"New York","state_code":"NY","country_code":"USA","latitude":40.743616,"longitude":-73.9880796,"geopoint":{"type":"Point","coordinates":[-73.9880796,40.743616]}},{"name":"MediaMall Technologies","description":"World Headquarters","address1":"20 River Terrace","address2":"","zip_code":"10282","city":"New York","state_code":"NY","country_code":"USA","latitude":40.7166829,"longitude":-74.0163992,"geopoint":{"type":"Point","coordinates":[-74.0163992,40.7166829]}},{"name":"Spoiled Milk","description":"Spoiled Milk ApS (HQ)","address1":"N\u00f8rrebrogade 52 C, 4 t.v.","address2":"","zip_code":"DK-2200","city":"Copenhagen","state_code":null,"country_code":"DNK","latitude":55.6886102,"longitude":12.5587476,"geopoint":{"type":"Point","coordinates":[12.5587476,55.6886102]}},{"name":"Spoiled Milk","description":"Spoiled Milk Holding AG","address1":"Hammerstrasse 11","address2":"","zip_code":"CH-8008","city":"Zurich","state_code":null,"country_code":"CHE","latitude":null,"longitude":null,"geopoint":null},{"name":"Spoiled Milk","description":"Spoiled Milk d.o.o","address1":"Kralja Petra 44","address2":"","zip_code":"RS-11000","city":"Belgrade","state_code":null,"country_code":"CSS","latitude":null,"longitude":null,"geopoint":null},{"name":"Spoiled Milk","description":"Spoiled Milk Inc.","address1":"419 Park Ave South","address2":"2nd Floor","zip_code":"10016","city":"New York City","state_code":"NY","country_code":"USA","latitude":null,"longitude":null,"geopoint":null},{"name":"Power-battery","description":"","address1":"Unit 1,","address2":"1000 North Circular Road","zip_code":"Nw2 7JP","city":"London","state_code":null,"country_code":"GBR","latitude":null,"longitude":null,"geopoint":null},{"name":"Louisville Web Group","description":"Corporate HQ","address1":"4965 US Highway 42","address2":"Suite 1000","zip_code":"40222","city":"Louisville","state_code":"KY","country_code":"USA","latitude":38.337337,"longitude":-85.474719,"geopoint":{"type":"Point","coordinates":[-85.474719,38.337337]}},{"name":"CleverCross","description":"Main Office Switzerland","address1":"Euthalerstrasse 10","address2":"","zip_code":"8844","city":"Euthal","state_code":null,"country_code":"CHE","latitude":47.0971702,"longitude":8.81218,"geopoint":{"type":"Point","coordinates":[8.81218,47.0971702]}},{"name":"CleverCross","description":"Office Vienna - Austria","address1":"Vogelgraben 76","address2":"","zip_code":"2392","city":"Sulz im Wienerwald","state_code":null,"country_code":"AUT","latitude":48.0940351,"longitude":16.1449998,"geopoint":{"type":"Point","coordinates":[16.1449998,48.0940351]}},{"name":"Designing Digitally","description":"Headquarters","address1":"8401 Claude Thomas Rd.","address2":"Suite 30","zip_code":"45005","city":"Franklin","state_code":"OH","country_code":"USA","latitude":39.5638545,"longitude":-84.2712073,"geopoint":{"type":"Point","coordinates":[-84.2712073,39.5638545]}},{"name":"Fortumo","description":"Europe","address1":"\u00dclikooli 6A","address2":"","zip_code":"51003","city":"Tartu","state_code":null,"country_code":"EST","latitude":58.3754107,"longitude":26.7212208,"geopoint":{"type":"Point","coordinates":[26.7212208,58.3754107]}},{"name":"Fortumo","description":"USA","address1":"625 2nd Street","address2":"","zip_code":"94107","city":"San Francisco","state_code":"CA","country_code":"USA","latitude":59.42145,"longitude":24.8021233,"geopoint":{"type":"Point","coordinates":[24.8021233,59.42145]}},{"name":"Fortumo","description":"Asia","address1":"Datun Road 222","address2":"","zip_code":"","city":"Beijing","state_code":null,"country_code":"CHN","latitude":null,"longitude":null,"geopoint":null},{"name":"Aquavation","description":null,"address1":null,"address2":null,"zip_code":null,"city":null,"state_code":null,"country_code":null,"latitude":null,"longitude":null,"geopoint":null},{"name":"ETFDesk","description":null,"address1":null,"address2":null,"zip_code":null,"city":null,"state_code":null,"country_code":null,"latitude":null,"longitude":null,"geopoint":null},{"name":"Veebox","description":"Los Angeles","address1":"2118 Wilshire Blvd #122","address2":"","zip_code":"90403","city":"Santa Monica","state_code":"CA","country_code":"USA","latitude":34.0324612,"longitude":-118.4818277,"geopoint":{"type":"Point","coordinates":[-118.4818277,34.0324612]}},{"name":"sfeed","description":"","address1":"","address2":"","zip_code":"","city":"Tallinn","state_code":null,"country_code":"EST","latitude":59.4388619,"longitude":24.7544715,"geopoint":{"type":"Point","coordinates":[24.7544715,59.4388619]}},{"name":"StarWind Software","description":"","address1":"40 Mall Rd.","address2":"","zip_code":"01803","city":"Burlington","state_code":"MA","country_code":"USA","latitude":42.487232,"longitude":-71.204372,"geopoint":{"type":"Point","coordinates":[-71.204372,42.487232]}},{"name":"Wine by the Bar","description":"","address1":"313 Nantucket Drive","address2":"","zip_code":"27513","city":"Cary","state_code":"NC","country_code":"USA","latitude":35.820177,"longitude":-78.792841,"geopoint":{"type":"Point","coordinates":[-78.792841,35.820177]}},{"name":"AutomatedGamer","description":null,"address1":null,"address2":null,"zip_code":null,"city":null,"state_code":null,"country_code":null,"latitude":null,"longitude":null,"geopoint":null},{"name":"Ads by Athena","description":null,"address1":null,"address2":null,"zip_code":null,"city":null,"state_code":null,"country_code":null,"latitude":null,"longitude":null,"geopoint":null},{"name":"Blackletter","description":null,"address1":null,"address2":null,"zip_code":null,"city":null,"state_code":null,"country_code":null,"latitude":null,"longitude":null,"geopoint":null},{"name":"NewChinaCareer","description":"Asia Headquarters","address1":"12\/F Kam Sang Building","address2":"255-257 Des Voeux Rd Central","zip_code":"","city":"Hong Kong","state_code":null,"country_code":"HKG","latitude":null,"longitude":null,"geopoint":null},{"name":"htmlPlayground","description":null,"address1":null,"address2":null,"zip_code":null,"city":null,"state_code":null,"country_code":null,"latitude":null,"longitude":null,"geopoint":null},{"name":"SocialFeet","description":null,"address1":null,"address2":null,"zip_code":null,"city":null,"state_code":null,"country_code":null,"latitude":null,"longitude":null,"geopoint":null},{"name":"Replify","description":"Headquarters","address1":"Wellington Buildings","address2":"2-4 Wellington Street","zip_code":"BT1 6HT","city":"Belfast","state_code":null,"country_code":"GBR","latitude":null,"longitude":null,"geopoint":null},{"name":"ThirdFrameStudios","description":"HQ Kranj","address1":"Savska Loka 21c","address2":"","zip_code":"4000","city":"Kranj","state_code":null,"country_code":"SVN","latitude":46.2272708,"longitude":14.3611417,"geopoint":{"type":"Point","coordinates":[14.3611417,46.2272708]}},{"name":"ThirdFrameStudios","description":"PE Ljubljana","address1":"Svet\u00c4\u008deva 14","address2":"","zip_code":"1000","city":"Ljubljana","state_code":null,"country_code":"SVN","latitude":null,"longitude":null,"geopoint":null},{"name":"Join The Clicks","description":"Head Office","address1":"7 Kelly St","address2":"","zip_code":"2007","city":"Ultimo","state_code":null,"country_code":"AUS","latitude":-33.881451,"longitude":151.19552,"geopoint":{"type":"Point","coordinates":[151.19552,-33.881451]}},{"name":"Cloudize","description":"Headquarters","address1":"456 Montgomery Street","address2":"Suite 488","zip_code":"94109","city":"San Francisco","state_code":"CA","country_code":"USA","latitude":37.793473,"longitude":-122.402667,"geopoint":{"type":"Point","coordinates":[-122.402667,37.793473]}},{"name":"ePhiphony Incorporated","description":"Headquarters","address1":"4115 Durham Ct","address2":"","zip_code":"55122","city":"Eagan","state_code":"MN","country_code":"USA","latitude":44.8067033,"longitude":-93.2038492,"geopoint":{"type":"Point","coordinates":[-93.2038492,44.8067033]}},{"name":"Course Hero","description":"Course Hero","address1":"1700 Seaport Blvd.","address2":"#150","zip_code":"94063","city":"Redwood City","state_code":"CA","country_code":"USA","latitude":37.511228,"longitude":-122.200622,"geopoint":{"type":"Point","coordinates":[-122.200622,37.511228]}},{"name":"BTS411","description":"Headquarters","address1":"836 Via Somonte","address2":"","zip_code":"90274","city":"Palos Verdes","state_code":"CA","country_code":"USA","latitude":33.7954354,"longitude":-118.3978335,"geopoint":{"type":"Point","coordinates":[-118.3978335,33.7954354]}},{"name":"Infoteria Online","description":"Headquarter","address1":"NT Building","address2":"1-47-1 Oi","zip_code":"140-0014","city":"Shinagawa-ku Tokyo","state_code":null,"country_code":"JPN","latitude":null,"longitude":null,"geopoint":null},{"name":"PBMCube","description":"Phoenix HQ","address1":"8111 N 19th Ave","address2":"Suite 1042","zip_code":"85021","city":"Phoenix","state_code":"AZ","country_code":"USA","latitude":33.554943,"longitude":-112.098592,"geopoint":{"type":"Point","coordinates":[-112.098592,33.554943]}},{"name":"fosiki","description":null,"address1":null,"address2":null,"zip_code":null,"city":null,"state_code":null,"country_code":null,"latitude":null,"longitude":null,"geopoint":null},{"name":"Relypsa","description":"","address1":"700 Saginaw Drive","address2":"","zip_code":"94063","city":"Redwood City","state_code":"CA","country_code":"USA","latitude":37.5024749,"longitude":-122.220408,"geopoint":{"type":"Point","coordinates":[-122.220408,37.5024749]}},{"name":"MyPetTrade","description":null,"address1":null,"address2":null,"zip_code":null,"city":null,"state_code":null,"country_code":null,"latitude":null,"longitude":null,"geopoint":null},{"name":"GoHome","description":"GoHome Head Office","address1":"Selska 92","address2":"","zip_code":"10000","city":"Zagreb","state_code":null,"country_code":"HRV","latitude":45.816128,"longitude":15.8012365,"geopoint":{"type":"Point","coordinates":[15.8012365,45.816128]}},{"name":"GoHome","description":"GoHome Development Center","address1":"Put orisca 9a","address2":"","zip_code":"21000","city":"Split","state_code":null,"country_code":"HRV","latitude":43.5052717,"longitude":16.5019494,"geopoint":{"type":"Point","coordinates":[16.5019494,43.5052717]}},{"name":"GoHome","description":"GoHome Italy","address1":"Viale Abruzzi 13\/A","address2":"","zip_code":"20131","city":"Milano","state_code":null,"country_code":"ITA","latitude":45.4755521,"longitude":9.2169919,"geopoint":{"type":"Point","coordinates":[9.2169919,45.4755521]}},{"name":"GoHome","description":"GoHome Slovenia","address1":"Zelezna cesta 18","address2":"","zip_code":"1000","city":"Ljubljana","state_code":null,"country_code":"SVN","latitude":46.0618582,"longitude":14.513558,"geopoint":{"type":"Point","coordinates":[14.513558,46.0618582]}},{"name":"GoHome","description":"GoHome Czech","address1":"","address2":"","zip_code":"","city":"Prague","state_code":null,"country_code":"CZE","latitude":50.0878114,"longitude":14.4204598,"geopoint":{"type":"Point","coordinates":[14.4204598,50.0878114]}},{"name":"ImageDeposit","description":null,"address1":null,"address2":null,"zip_code":null,"city":null,"state_code":null,"country_code":null,"latitude":null,"longitude":null,"geopoint":null},{"name":"RightsFlow","description":"RightsFlow - New York","address1":"29 West 17th Street, 10th Floor","address2":"","zip_code":"10011","city":"New York","state_code":"NY","country_code":"USA","latitude":null,"longitude":null,"geopoint":null},{"name":"Shopnics","description":null,"address1":null,"address2":null,"zip_code":null,"city":null,"state_code":null,"country_code":null,"latitude":null,"longitude":null,"geopoint":null},{"name":"GreenCupboards","description":null,"address1":null,"address2":null,"zip_code":null,"city":null,"state_code":null,"country_code":null,"latitude":null,"longitude":null,"geopoint":null},{"name":"Azteria","description":"Main","address1":"","address2":"","zip_code":"97701","city":"Bend","state_code":"OR","country_code":"USA","latitude":44.06048,"longitude":-121.312515,"geopoint":{"type":"Point","coordinates":[-121.312515,44.06048]}},{"name":"AmberBit","description":"Bialystok AmberBit HQ","address1":"Hurtowa 4","address2":"","zip_code":"15-399","city":"Bia\u00c5\u201aystok","state_code":null,"country_code":"POL","latitude":53.1371088,"longitude":23.1540917,"geopoint":{"type":"Point","coordinates":[23.1540917,53.1371088]}},{"name":"Ashe Media Holdings","description":"Headquarters","address1":"","address2":"","zip_code":"35476","city":"","state_code":"AL","country_code":"USA","latitude":33.884218,"longitude":-84.338429,"geopoint":{"type":"Point","coordinates":[-84.338429,33.884218]}},{"name":"Validize","description":"HQ","address1":"300 Fifth Avenue","address2":"3rd Floor","zip_code":"02451","city":"Waltham","state_code":"MA","country_code":"USA","latitude":42.390143,"longitude":-71.257919,"geopoint":{"type":"Point","coordinates":[-71.257919,42.390143]}},{"name":"Dormtainment","description":null,"address1":null,"address2":null,"zip_code":null,"city":null,"state_code":null,"country_code":null,"latitude":null,"longitude":null,"geopoint":null},{"name":"Daily Social","description":null,"address1":null,"address2":null,"zip_code":null,"city":null,"state_code":null,"country_code":null,"latitude":null,"longitude":null,"geopoint":null},{"name":"OE Design","description":"Head Office","address1":"17\/79 West Burleigh Rd","address2":"","zip_code":"4220","city":"Burleigh Heads","state_code":null,"country_code":"AUS","latitude":-28.085945,"longitude":153.390945,"geopoint":{"type":"Point","coordinates":[153.390945,-28.085945]}},{"name":"Adventure Areas","description":null,"address1":null,"address2":null,"zip_code":null,"city":null,"state_code":null,"country_code":null,"latitude":null,"longitude":null,"geopoint":null},{"name":"LAGrapeVine","description":"Location","address1":"2430 Ivory Way","address2":"","zip_code":"93036","city":"Oxnard","state_code":"CA","country_code":"USA","latitude":34.230406,"longitude":-119.186443,"geopoint":{"type":"Point","coordinates":[-119.186443,34.230406]}},{"name":"Information Architects","description":null,"address1":null,"address2":null,"zip_code":null,"city":null,"state_code":null,"country_code":null,"latitude":null,"longitude":null,"geopoint":null},{"name":"Newser","description":"","address1":"","address2":"","zip_code":"","city":"Chicago","state_code":"IL","country_code":"USA","latitude":41.879535,"longitude":-87.624333,"geopoint":{"type":"Point","coordinates":[-87.624333,41.879535]}},{"name":"upad","description":"London Office","address1":"104 Tennyson Road","address2":"","zip_code":"NW6 7SB","city":"London","state_code":null,"country_code":"GBR","latitude":51.5382894,"longitude":-0.2023958,"geopoint":{"type":"Point","coordinates":[-0.2023958,51.5382894]}},{"name":"Swiffen","description":"London Office","address1":"114, St. Martins Lane","address2":"","zip_code":"WC2N4BE","city":"London","state_code":null,"country_code":"GBR","latitude":51.5163382,"longitude":-0.0828173,"geopoint":{"type":"Point","coordinates":[-0.0828173,51.5163382]}},{"name":"Antelink","description":"Paris Headquarters","address1":"18 rue Yves Toudic","address2":"","zip_code":"75010","city":"Paris 10\u00c3\u00a8me","state_code":null,"country_code":"FRA","latitude":48.8524775,"longitude":2.3660117,"geopoint":{"type":"Point","coordinates":[2.3660117,48.8524775]}},{"name":"My China Career","description":null,"address1":null,"address2":null,"zip_code":null,"city":null,"state_code":null,"country_code":null,"latitude":null,"longitude":null,"geopoint":null},{"name":"Specle","description":"Head Office","address1":"34-43 Russell Street","address2":"","zip_code":"WC2B 5HA","city":"London","state_code":null,"country_code":"GBR","latitude":51.5080607,"longitude":-0.1067217,"geopoint":{"type":"Point","coordinates":[-0.1067217,51.5080607]}},{"name":"Webpulser","description":"Lille","address1":"23 bld du general leclerc","address2":"","zip_code":"59100","city":"Roubaix","state_code":null,"country_code":"FRA","latitude":50.6871429,"longitude":3.1802864,"geopoint":{"type":"Point","coordinates":[3.1802864,50.6871429]}},{"name":"mobifriends","description":"Barcelona Office","address1":"Albigesos 25-27 Bajos Ext.","address2":"","zip_code":"08024","city":"Barcelona","state_code":null,"country_code":"ESP","latitude":null,"longitude":null,"geopoint":null},{"name":"DoodleWall","description":null,"address1":null,"address2":null,"zip_code":null,"city":null,"state_code":null,"country_code":null,"latitude":null,"longitude":null,"geopoint":null},{"name":"Promise Communities","description":null,"address1":null,"address2":null,"zip_code":null,"city":null,"state_code":null,"country_code":null,"latitude":null,"longitude":null,"geopoint":null},{"name":"IES Solutions","description":"Headquarter","address1":"Via Monte Senario 98","address2":"","zip_code":"00100","city":"Roma","state_code":null,"country_code":"ITA","latitude":41.9442565,"longitude":12.5300957,"geopoint":{"type":"Point","coordinates":[12.5300957,41.9442565]}},{"name":"IES Solutions","description":"Operational Unit","address1":"Via Vulcano 10","address2":"","zip_code":"95030","city":"Gravina di Catania (CT)","state_code":null,"country_code":"ITA","latitude":37.5672167,"longitude":15.0656891,"geopoint":{"type":"Point","coordinates":[15.0656891,37.5672167]}},{"name":"Nushio","description":null,"address1":null,"address2":null,"zip_code":null,"city":null,"state_code":null,"country_code":null,"latitude":null,"longitude":null,"geopoint":null},{"name":"Violet Enterprise Solutions","description":"Singapore","address1":"1 Fullerton Road","address2":"#02-01","zip_code":"049213","city":"Singapore","state_code":null,"country_code":"SGP","latitude":1.2863555,"longitude":103.8541496,"geopoint":{"type":"Point","coordinates":[103.8541496,1.2863555]}},{"name":"Websystems, inc","description":"Headquarters","address1":"825 Lebourgneuf Blvd.","address2":"Office #212","zip_code":"G2J 0B9","city":"Quebec","state_code":null,"country_code":"CAN","latitude":46.8431654,"longitude":-71.290099,"geopoint":{"type":"Point","coordinates":[-71.290099,46.8431654]}},{"name":"eLayaway","description":"eLayaway Headquarters","address1":"1625 Summit Lake Dr.","address2":"Suite 205","zip_code":"32317","city":"Tallahassee","state_code":"FL","country_code":"USA","latitude":30.484619,"longitude":-84.151101,"geopoint":{"type":"Point","coordinates":[-84.151101,30.484619]}},{"name":"AlphaPoint Technology","description":"Corporate Office","address1":"6371 Business Blvd.","address2":"Suite 200","zip_code":"34240","city":"Sarasota","state_code":"FL","country_code":"USA","latitude":27.3858,"longitude":-82.423,"geopoint":{"type":"Point","coordinates":[-82.423,27.3858]}},{"name":"Electronic Compute Systems","description":"","address1":"418 Donegal Dr.","address2":"","zip_code":"21286","city":"Towson","state_code":"MD","country_code":"USA","latitude":39.389694,"longitude":-76.591418,"geopoint":{"type":"Point","coordinates":[-76.591418,39.389694]}},{"name":"Onthegig","description":"Onthegig.com","address1":"","address2":"","zip_code":"19106","city":"Philadelphia","state_code":"PA","country_code":"USA","latitude":39.9493801,"longitude":-75.145782,"geopoint":{"type":"Point","coordinates":[-75.145782,39.9493801]}},{"name":"PERCUSSA","description":"","address1":"","address2":"","zip_code":"9420","city":"Mere","state_code":null,"country_code":"BEL","latitude":50.9228106,"longitude":3.9712962,"geopoint":{"type":"Point","coordinates":[3.9712962,50.9228106]}},{"name":"hooolp","description":"hooolp GmbH","address1":"Clementweg 35","address2":"","zip_code":"13127","city":"Berlin","state_code":null,"country_code":"DEU","latitude":49.9548993,"longitude":11.5778387,"geopoint":{"type":"Point","coordinates":[11.5778387,49.9548993]}},{"name":"GroupieGuide","description":"HQ","address1":"1008 Western Ave","address2":"Suite 400","zip_code":"98104","city":"Seattle","state_code":"WA","country_code":"USA","latitude":47.6042792,"longitude":-122.3374372,"geopoint":{"type":"Point","coordinates":[-122.3374372,47.6042792]}},{"name":"Healogica","description":"World Headquarters","address1":"47 West 76th Street","address2":"#4","zip_code":"10023","city":"New York","state_code":"NY","country_code":"USA","latitude":40.779959,"longitude":-73.976151,"geopoint":{"type":"Point","coordinates":[-73.976151,40.779959]}},{"name":"Bvocalized","description":"Head Office","address1":"605 Foster Ave","address2":"","zip_code":"V3J2L6","city":"Coquitlam","state_code":null,"country_code":"CAN","latitude":49.256745,"longitude":-122.8856305,"geopoint":{"type":"Point","coordinates":[-122.8856305,49.256745]}},{"name":"Chirbit","description":"Chirbit US Headquarters","address1":"1356 Briarcliff Road NE","address2":"","zip_code":"30306","city":"Atlanta","state_code":"GA","country_code":"USA","latitude":33.791726,"longitude":-84.338044,"geopoint":{"type":"Point","coordinates":[-84.338044,33.791726]}},{"name":"Motor Creative Marketing","description":"Corporate Headquarters","address1":"117 Avenida Cabrillo","address2":"","zip_code":"92672","city":"San Clemente","state_code":"CA","country_code":"USA","latitude":33.427397,"longitude":-117.613865,"geopoint":{"type":"Point","coordinates":[-117.613865,33.427397]}},{"name":"Digital Partners","description":"Auckland, NZ","address1":"Level 2, 11 York Street","address2":"Parnell","zip_code":"1052","city":"Auckland","state_code":null,"country_code":"NZL","latitude":null,"longitude":null,"geopoint":null},{"name":"Me!Box Media","description":"Corp Office","address1":"","address2":"","zip_code":"","city":"Indianapolis","state_code":"IN","country_code":"USA","latitude":39.767016,"longitude":-86.156255,"geopoint":{"type":"Point","coordinates":[-86.156255,39.767016]}},{"name":"Me!Box Media","description":"Tech Center","address1":"","address2":"","zip_code":"","city":"Chicago","state_code":"IL","country_code":"USA","latitude":41.879535,"longitude":-87.624333,"geopoint":{"type":"Point","coordinates":[-87.624333,41.879535]}},{"name":"Oriental-Creations","description":"Headquarters","address1":"Babur str., 10\/29","address2":"","zip_code":"100100","city":"Tashkent","state_code":null,"country_code":"UZB","latitude":null,"longitude":null,"geopoint":null},{"name":"Sportsaholic","description":null,"address1":null,"address2":null,"zip_code":null,"city":null,"state_code":null,"country_code":null,"latitude":null,"longitude":null,"geopoint":null},{"name":"Jingle Infotech Limited","description":null,"address1":null,"address2":null,"zip_code":null,"city":null,"state_code":null,"country_code":null,"latitude":null,"longitude":null,"geopoint":null},{"name":"Varsity Outreach","description":"Headquarters","address1":"3200 16th St. NW","address2":"Suite 616","zip_code":"20010","city":"Washington","state_code":"DC","country_code":"USA","latitude":38.93097,"longitude":-77.036972,"geopoint":{"type":"Point","coordinates":[-77.036972,38.93097]}},{"name":"Fotomoto","description":"Main Office","address1":"425 Brannan St.","address2":"","zip_code":"94107","city":"San Francisco","state_code":"CA","country_code":"USA","latitude":37.7795014,"longitude":-122.3948712,"geopoint":{"type":"Point","coordinates":[-122.3948712,37.7795014]}},{"name":"Abengoa","description":"","address1":"Campus Palmas Altas","address2":"Plot ZE-3 (Palmas Altas)","zip_code":"41014","city":"Seville","state_code":null,"country_code":"ESP","latitude":null,"longitude":null,"geopoint":null},{"name":"DiVitas Networks","description":"Corporate Headquarters","address1":"321 Castro St, Second floor","address2":"","zip_code":"94041","city":"Mountain View","state_code":"CA","country_code":"USA","latitude":37.377019,"longitude":-122.11528,"geopoint":{"type":"Point","coordinates":[-122.11528,37.377019]}},{"name":"DiVitas Networks","description":"India Office","address1":"No 11, Athani Complex, 100 ft Ring Road, B.T.M.Layout II stage","address2":"","zip_code":"560 076","city":"Bangalore","state_code":null,"country_code":"IND","latitude":null,"longitude":null,"geopoint":null},{"name":"VKernel Corporation","description":"VKernel, a part of Dell","address1":"285 Summer Street","address2":"","zip_code":"02210","city":"Boston","state_code":"MA","country_code":"USA","latitude":42.3497366,"longitude":-71.0491901,"geopoint":{"type":"Point","coordinates":[-71.0491901,42.3497366]}},{"name":"BUSINEO","description":"Busineo","address1":"4 bis rue Marcel Miquel","address2":"","zip_code":"92130","city":"Issy Les Moulineaux","state_code":null,"country_code":"FRA","latitude":48.8208454,"longitude":2.2497852,"geopoint":{"type":"Point","coordinates":[2.2497852,48.8208454]}},{"name":"Attassa","description":"Main Office","address1":"","address2":"","zip_code":"","city":"Kirkland","state_code":"WA","country_code":"USA","latitude":null,"longitude":null,"geopoint":null},{"name":"Cloud Hero","description":null,"address1":null,"address2":null,"zip_code":null,"city":null,"state_code":null,"country_code":null,"latitude":null,"longitude":null,"geopoint":null},{"name":"Tipstar","description":"Newcastle Offices","address1":"GIBC","address2":"Mulgrave Terrace","zip_code":"NE8 1AN","city":"Gateshead","state_code":null,"country_code":"GBR","latitude":null,"longitude":null,"geopoint":null},{"name":"CASAMUNDO","description":"Headquarters","address1":"CASAMUNDO GmbH","address2":"Drehbahn 7","zip_code":"20354","city":"Hamburg","state_code":null,"country_code":"DEU","latitude":null,"longitude":null,"geopoint":null},{"name":"XHTML Fresh","description":null,"address1":null,"address2":null,"zip_code":null,"city":null,"state_code":null,"country_code":null,"latitude":null,"longitude":null,"geopoint":null},{"name":"Carbonon Tech","description":null,"address1":null,"address2":null,"zip_code":null,"city":null,"state_code":null,"country_code":null,"latitude":null,"longitude":null,"geopoint":null},{"name":"Fuelhaus Strategic Design","description":null,"address1":null,"address2":null,"zip_code":null,"city":null,"state_code":null,"country_code":null,"latitude":null,"longitude":null,"geopoint":null},{"name":"Aria Networks","description":"Corporate Headquarters","address1":"Bath Road","address2":"Avonbridge House","zip_code":"SN15 2BB","city":"Chippenham","state_code":null,"country_code":"GBR","latitude":51.4515283,"longitude":-2.1334555,"geopoint":{"type":"Point","coordinates":[-2.1334555,51.4515283]}},{"name":"go2doc","description":null,"address1":null,"address2":null,"zip_code":null,"city":null,"state_code":null,"country_code":null,"latitude":null,"longitude":null,"geopoint":null},{"name":"WiseBeetle","description":null,"address1":null,"address2":null,"zip_code":null,"city":null,"state_code":null,"country_code":null,"latitude":null,"longitude":null,"geopoint":null},{"name":"Without Software","description":"","address1":"70 Mill St.","address2":"Suite 909","zip_code":"M5A 4R1","city":"Toronto, ON","state_code":null,"country_code":"CAN","latitude":43.6509601,"longitude":-79.3588278,"geopoint":{"type":"Point","coordinates":[-79.3588278,43.6509601]}},{"name":"LEADshare","description":"","address1":"","address2":"","zip_code":"","city":"Paris","state_code":null,"country_code":"FRA","latitude":48.8566667,"longitude":2.3509871,"geopoint":{"type":"Point","coordinates":[2.3509871,48.8566667]}},{"name":"c-LEcta","description":"","address1":"Deutscher Platz 5","address2":"","zip_code":"04103","city":"Leipzig","state_code":null,"country_code":"DEU","latitude":51.3210042,"longitude":12.3959182,"geopoint":{"type":"Point","coordinates":[12.3959182,51.3210042]}},{"name":"Pigmata Media","description":"Pigmata HQ","address1":"1177 Chino Roces Ave. Suite 4A","address2":"","zip_code":"1203","city":"Makati","state_code":null,"country_code":"PHL","latitude":14.5359294,"longitude":121.0211311,"geopoint":{"type":"Point","coordinates":[121.0211311,14.5359294]}},{"name":"2 Minutes","description":"","address1":"9 rue biscornet","address2":"","zip_code":"75012","city":"Paris","state_code":null,"country_code":"FRA","latitude":48.8502056,"longitude":2.3698033,"geopoint":{"type":"Point","coordinates":[2.3698033,48.8502056]}},{"name":"SIPHON Networks","description":"SIPHON Networks Ltd","address1":"Belfry House, Bell Lane","address2":"Hertford","zip_code":"SG14 1BP","city":"Hertfordshire","state_code":null,"country_code":"GBR","latitude":null,"longitude":null,"geopoint":null},{"name":"Zipcar","description":"","address1":"1157 West Peachtree Street","address2":"","zip_code":"30309","city":"NW Atlanta","state_code":"GA","country_code":"USA","latitude":33.7862629,"longitude":-84.3877936,"geopoint":{"type":"Point","coordinates":[-84.3877936,33.7862629]}},{"name":"ooze","description":"OOZE Maison","address1":"Defensa 825","address2":"","zip_code":"1065","city":"Buenos Aires","state_code":null,"country_code":"ARG","latitude":-34.6200334,"longitude":-58.3714797,"geopoint":{"type":"Point","coordinates":[-58.3714797,-34.6200334]}},{"name":"1Scan","description":"HQ","address1":"27 Brentwood Place","address2":"","zip_code":"CM15 9DN","city":"Brentwood","state_code":null,"country_code":"GBR","latitude":51.6243061,"longitude":0.3048195,"geopoint":{"type":"Point","coordinates":[0.3048195,51.6243061]}},{"name":"MetroLyrics","description":"Headquarters","address1":"311 Water Street","address2":"Suite 500","zip_code":"V6B 1B8","city":"Vancouver, British Columbia","state_code":null,"country_code":"CAN","latitude":49.2608279,"longitude":-122.9145936,"geopoint":{"type":"Point","coordinates":[-122.9145936,49.2608279]}},{"name":"GameGround","description":"HQ","address1":"","address2":"","zip_code":"","city":"New York","state_code":"NY","country_code":"USA","latitude":40.756054,"longitude":-73.986951,"geopoint":{"type":"Point","coordinates":[-73.986951,40.756054]}},{"name":"mTrip","description":"Headquarter","address1":"420 Rue Guy","address2":"","zip_code":"H3J 1S6","city":"Montreal","state_code":null,"country_code":"CAN","latitude":45.503971,"longitude":-73.57236,"geopoint":{"type":"Point","coordinates":[-73.57236,45.503971]}},{"name":"Gig Donkey","description":null,"address1":null,"address2":null,"zip_code":null,"city":null,"state_code":null,"country_code":null,"latitude":null,"longitude":null,"geopoint":null},{"name":"Woobius","description":null,"address1":null,"address2":null,"zip_code":null,"city":null,"state_code":null,"country_code":null,"latitude":null,"longitude":null,"geopoint":null},{"name":"Instant Domain Search","description":null,"address1":null,"address2":null,"zip_code":null,"city":null,"state_code":null,"country_code":null,"latitude":null,"longitude":null,"geopoint":null},{"name":"Latamdata","description":null,"address1":null,"address2":null,"zip_code":null,"city":null,"state_code":null,"country_code":null,"latitude":null,"longitude":null,"geopoint":null},{"name":"Social Shore","description":"Headquarters","address1":"15 East 40th Street, 5th Floor","address2":"","zip_code":"10016","city":"New York","state_code":"NY","country_code":"USA","latitude":null,"longitude":null,"geopoint":null},{"name":"ObjectSharp","description":"Toronto","address1":"1 Yonge Street","address2":"Suite 1801","zip_code":"M5E 1W7","city":"Toronto","state_code":null,"country_code":"CAN","latitude":43.6422601,"longitude":-79.3748894,"geopoint":{"type":"Point","coordinates":[-79.3748894,43.6422601]}},{"name":"Dream Cheeky","description":"Hong Kong Office","address1":"1207 Peninsula Centre","address2":"","zip_code":"","city":"Tsim Sha Tsui East","state_code":null,"country_code":"HKG","latitude":null,"longitude":null,"geopoint":null},{"name":"Mudlark","description":"Birmingham Studio","address1":"19 Fazeley Studios","address2":"Fazeley Rd","zip_code":"NG10 4LQ","city":"Birmingham","state_code":null,"country_code":"GBR","latitude":null,"longitude":null,"geopoint":null},{"name":"Engagement Systems","description":"Engagement Systems","address1":"8300 NE Underground Dr.","address2":"Pillar 122","zip_code":"64161","city":"Kansas City","state_code":"MO","country_code":"USA","latitude":39.156427,"longitude":-94.483334,"geopoint":{"type":"Point","coordinates":[-94.483334,39.156427]}},{"name":"Amandustechnologies","description":null,"address1":null,"address2":null,"zip_code":null,"city":null,"state_code":null,"country_code":null,"latitude":null,"longitude":null,"geopoint":null},{"name":"Navtrak","description":null,"address1":null,"address2":null,"zip_code":null,"city":null,"state_code":null,"country_code":null,"latitude":null,"longitude":null,"geopoint":null},{"name":"COOKPAD","description":"Headquarter","address1":"5-12-7 Shirokanedai","address2":"Minato-ku","zip_code":"108-0071","city":"Tokyo","state_code":null,"country_code":"JPN","latitude":null,"longitude":null,"geopoint":null},{"name":"Adeye Mobile","description":"Adeye London HQ","address1":"5 Denmark Street","address2":"Covent Garden","zip_code":"WC2H 8LP","city":"London","state_code":null,"country_code":"GBR","latitude":51.515129,"longitude":-0.1297711,"geopoint":{"type":"Point","coordinates":[-0.1297711,51.515129]}},{"name":"Ben Jen Online, LLC","description":"Ben Jen Online, LLC","address1":"PO Box 221","address2":"","zip_code":"07921-0221","city":"Bedminster","state_code":"NJ","country_code":"USA","latitude":40.6463644,"longitude":-74.6985891,"geopoint":{"type":"Point","coordinates":[-74.6985891,40.6463644]}},{"name":"Ben Jen Online, LLC","description":"Ben Jen Online, LLC","address1":"PO Box 171471","address2":"","zip_code":"02117","city":"Boston","state_code":"MA","country_code":"USA","latitude":null,"longitude":null,"geopoint":null},{"name":"SolaRover","description":"Headquarters","address1":"9980 Park Meadows Dr.","address2":"Suite 212","zip_code":"80124","city":"Lone Tree","state_code":"CO","country_code":"USA","latitude":37.9243593,"longitude":-122.0236032,"geopoint":{"type":"Point","coordinates":[-122.0236032,37.9243593]}},{"name":"En-Twyn","description":"London","address1":"83 Brent Way","address2":"","zip_code":"N3 1AR","city":"London","state_code":null,"country_code":"GBR","latitude":51.6104102,"longitude":-0.1937731,"geopoint":{"type":"Point","coordinates":[-0.1937731,51.6104102]}},{"name":"Ramp Up Tech","description":"New York Office","address1":"153 West 27th Street","address2":"Suite 300","zip_code":"10001","city":"New York","state_code":"NY","country_code":"USA","latitude":40.746514,"longitude":-73.993035,"geopoint":{"type":"Point","coordinates":[-73.993035,40.746514]}},{"name":"FLYPEANUT Studio","description":"","address1":"","address2":"","zip_code":"444-4444","city":"Seoul","state_code":null,"country_code":"KOR","latitude":37.56862,"longitude":127.0263662,"geopoint":{"type":"Point","coordinates":[127.0263662,37.56862]}},{"name":"GetItWithMe","description":"London, GBR","address1":"","address2":"","zip_code":"N1 6NG","city":"London","state_code":null,"country_code":"GBR","latitude":51.5793731,"longitude":-0.1162418,"geopoint":{"type":"Point","coordinates":[-0.1162418,51.5793731]}},{"name":"TVU Networks","description":"Headquarters","address1":"1685 Plymouth St.","address2":"Suite 100","zip_code":"94043","city":"Mountain View","state_code":"CA","country_code":"USA","latitude":37.416349,"longitude":-122.085021,"geopoint":{"type":"Point","coordinates":[-122.085021,37.416349]}},{"name":"TVU Networks","description":"TVU Networks (China)","address1":"","address2":"","zip_code":"","city":"Shanghai","state_code":null,"country_code":"CHN","latitude":null,"longitude":null,"geopoint":null},{"name":"TVU Networks","description":"New York Office","address1":"","address2":"","zip_code":"","city":"New York","state_code":"NY","country_code":"USA","latitude":null,"longitude":null,"geopoint":null},{"name":"Ahead","description":null,"address1":null,"address2":null,"zip_code":null,"city":null,"state_code":null,"country_code":null,"latitude":null,"longitude":null,"geopoint":null},{"name":"whatjobsite","description":"HQ","address1":"","address2":"","zip_code":"","city":"London","state_code":null,"country_code":"GBR","latitude":51.5001524,"longitude":-0.1262362,"geopoint":{"type":"Point","coordinates":[-0.1262362,51.5001524]}},{"name":"Team Effect","description":"Headquarters","address1":"49a Price Cr","address2":"Mt Wellington","zip_code":"3112","city":"Auckland","state_code":null,"country_code":"NZL","latitude":null,"longitude":null,"geopoint":null},{"name":"Orbis Media Technologies","description":"Orbis Media Technologies","address1":"Second Floor, B.B.Court, No.526 7th Cross, 10th Main, Jeevan Bhimanagar, Bangalore-560 075, India","address2":"","zip_code":"560075","city":"Bangalore","state_code":null,"country_code":"IND","latitude":null,"longitude":null,"geopoint":null},{"name":"Grubby Games","description":null,"address1":null,"address2":null,"zip_code":null,"city":null,"state_code":null,"country_code":null,"latitude":null,"longitude":null,"geopoint":null},{"name":"Video Game 911","description":"","address1":"411 East Main Street","address2":"","zip_code":"07834","city":"Denville","state_code":"NJ","country_code":"USA","latitude":40.878656,"longitude":-74.4800198,"geopoint":{"type":"Point","coordinates":[-74.4800198,40.878656]}},{"name":"Mobile TeleSystems OJSC","description":"","address1":"","address2":"","zip_code":"","city":"Moscow","state_code":null,"country_code":"RUS","latitude":55.755786,"longitude":37.617633,"geopoint":{"type":"Point","coordinates":[37.617633,55.755786]}},{"name":"Spotcher","description":"","address1":"PO Box 6623","address2":"","zip_code":"90212","city":"Beverly Hills","state_code":"CA","country_code":"USA","latitude":34.0617109,"longitude":-118.4017053,"geopoint":{"type":"Point","coordinates":[-118.4017053,34.0617109]}},{"name":"DoTradeEasy","description":"DoTradeEasy Ltd","address1":"145 - 157 St John Street","address2":"","zip_code":"EC1V4PY","city":"London","state_code":null,"country_code":"GBR","latitude":51.5270568,"longitude":-0.1043766,"geopoint":{"type":"Point","coordinates":[-0.1043766,51.5270568]}},{"name":"Principle Power","description":"","address1":"93 S. Jackson Street #63650","address2":"","zip_code":"98104","city":"Seattle","state_code":"WA","country_code":"USA","latitude":47.5992095,"longitude":-122.3343564,"geopoint":{"type":"Point","coordinates":[-122.3343564,47.5992095]}},{"name":"Solairedirect","description":"Headquarters","address1":"85 boulevard Haussmann","address2":"","zip_code":"75008","city":"Paris","state_code":null,"country_code":"FRA","latitude":48.8745951,"longitude":2.3210737,"geopoint":{"type":"Point","coordinates":[2.3210737,48.8745951]}},{"name":"Turbo Tech Live","description":null,"address1":null,"address2":null,"zip_code":null,"city":null,"state_code":null,"country_code":null,"latitude":null,"longitude":null,"geopoint":null},{"name":"FleetMatics","description":"Chicago","address1":"1600 East Golf Road","address2":"Suite 800","zip_code":"60008","city":"Rolling Meadows","state_code":"IL","country_code":"USA","latitude":null,"longitude":null,"geopoint":null},{"name":"FleetMatics","description":"Charlotte","address1":"5501 Seventy Seven Center Drive","address2":"Suite 300","zip_code":"28217","city":"Charlotte","state_code":"NC","country_code":"USA","latitude":null,"longitude":null,"geopoint":null},{"name":"FleetMatics","description":"Boston","address1":"70 Walnut Street","address2":"2nd Floor","zip_code":"02481","city":"Wellesley Hills","state_code":"MA","country_code":"USA","latitude":null,"longitude":null,"geopoint":null},{"name":"FleetMatics","description":"Clearwater","address1":"1255 Cleveland Street","address2":"3rd Floor","zip_code":"33755","city":"Clearwater","state_code":"FL","country_code":"USA","latitude":null,"longitude":null,"geopoint":null},{"name":"FleetMatics","description":"Phoenix","address1":"9180 South Kyrene Road","address2":"","zip_code":"85284","city":"Tempe","state_code":"AZ","country_code":"USA","latitude":null,"longitude":null,"geopoint":null},{"name":"FleetMatics","description":"Dublin","address1":"178 Templeogue Road","address2":"","zip_code":"Dublin 6W","city":"Templeogue","state_code":null,"country_code":"IRL","latitude":null,"longitude":null,"geopoint":null},{"name":"FleetMatics","description":"London","address1":"Unit 4 BeaconTree Plaza","address2":"Gillette Way","zip_code":"RG2 0BS","city":"Reading","state_code":null,"country_code":"GBR","latitude":null,"longitude":null,"geopoint":null},{"name":"Concord Supplies","description":"Headquarters","address1":"959 AEC Drive","address2":"","zip_code":"60191","city":"Wood Dale","state_code":"IL","country_code":"USA","latitude":41.9808335,"longitude":-87.9825732,"geopoint":{"type":"Point","coordinates":[-87.9825732,41.9808335]}},{"name":"SalesInsight","description":"Headquarter","address1":"E132, Shastri Nagar","address2":"","zip_code":"201010","city":"Ghaziabad","state_code":null,"country_code":"IND","latitude":28.6382433,"longitude":77.0737149,"geopoint":{"type":"Point","coordinates":[77.0737149,28.6382433]}},{"name":"FacebookLicious!","description":"Facebooklicious Office.","address1":"42 Paisley Street,","address2":"","zip_code":"19701","city":"Bear","state_code":"DE","country_code":"USA","latitude":39.612223,"longitude":-75.696706,"geopoint":{"type":"Point","coordinates":[-75.696706,39.612223]}},{"name":"Wondershare Software","description":"Headquarter","address1":"3\/F, Fucheng Hi-Tech Building, Gaoxin South Road 1, Nanshan District,","address2":"","zip_code":"518057","city":"Shenzhen","state_code":null,"country_code":"CHN","latitude":null,"longitude":null,"geopoint":null},{"name":"Anchor Bay Technologies","description":"HQ","address1":"300 Orchard City Drive","address2":"M\/S 131","zip_code":"95008","city":"Campbell","state_code":"CA","country_code":"USA","latitude":37.2496346,"longitude":-121.9665932,"geopoint":{"type":"Point","coordinates":[-121.9665932,37.2496346]}},{"name":"Venturi Wireless","description":"US Office","address1":"1320 Chesapeake Terrace","address2":"","zip_code":"94085","city":"Sunnyvale","state_code":"CA","country_code":"USA","latitude":37.4099985,"longitude":-122.0018725,"geopoint":{"type":"Point","coordinates":[-122.0018725,37.4099985]}},{"name":"Amber Networks","description":"US Office","address1":"48664 Milmont Drive","address2":"","zip_code":"94538","city":"Fremont","state_code":"CA","country_code":"USA","latitude":37.46424,"longitude":-121.921069,"geopoint":{"type":"Point","coordinates":[-121.921069,37.46424]}},{"name":"Catamaran","description":"US Office","address1":"2345 Harris Way","address2":"","zip_code":"95131","city":"San Jose","state_code":"CA","country_code":"USA","latitude":37.402895,"longitude":-121.905426,"geopoint":{"type":"Point","coordinates":[-121.905426,37.402895]}},{"name":"Applied Language Solutions","description":"UK","address1":"Riverside Court, Huddersfield Rd","address2":"Delph","zip_code":"OL3 5FZ","city":"Oldham","state_code":null,"country_code":"GBR","latitude":null,"longitude":null,"geopoint":null},{"name":"Applied Language Solutions","description":"US","address1":"1435 W Crone Avenue","address2":"","zip_code":"92802","city":"Anaheim","state_code":"CA","country_code":"USA","latitude":33.821994,"longitude":-117.932197,"geopoint":{"type":"Point","coordinates":[-117.932197,33.821994]}},{"name":"Embarcadero Technologies","description":"Corporate Headquarters","address1":"100 California Street","address2":"12th Floor","zip_code":"94111","city":"San Francisco","state_code":"CA","country_code":"USA","latitude":37.793949,"longitude":-122.398062,"geopoint":{"type":"Point","coordinates":[-122.398062,37.793949]}},{"name":"Bump Technologies","description":"HQ","address1":"","address2":"","zip_code":"94041","city":"Mountain View","state_code":"CA","country_code":"USA","latitude":null,"longitude":null,"geopoint":null},{"name":"Fotothing","description":"ADVFN plc, Owners","address1":"26 Throgmorton Street","address2":"","zip_code":"EC2 2AN","city":"London","state_code":null,"country_code":"GBR","latitude":null,"longitude":null,"geopoint":null},{"name":"CScout Japan","description":"CScout Japan Co., Ltd.","address1":"Hanegi 2-17-8","address2":"Setagaya-ku","zip_code":"156-0042","city":"Tokyo","state_code":null,"country_code":"JPN","latitude":null,"longitude":null,"geopoint":null},{"name":"My TV Shows","description":"Lisbon Office","address1":"Rua Ros\u00c3\u00a1lia de Castro","address2":"","zip_code":"1700","city":"Lisbon","state_code":null,"country_code":"PRT","latitude":38.7523672,"longitude":-9.1462209,"geopoint":{"type":"Point","coordinates":[-9.1462209,38.7523672]}}]